     3.02           OBSERVATION DATA    M: Mixed            RINEX VERSION / TYPE
CONVBIN 2.4.2                           20190917 152525 UTC PGM / RUN BY / DATE 
log: ./output_ubx/raw_obs_test_lollo_17-9-2019_17:23.ubx    COMMENT             
format: u-blox                                              COMMENT             
                                                            MARKER NAME         
                                                            MARKER NUMBER       
                                                            MARKER TYPE         
                                                            OBSERVER / AGENCY   
                                                            REC # / TYPE / VERS 
                                                            ANT # / TYPE        
  4508560.1247   708396.2620  4440704.6924                  APPROX POSITION XYZ 
        0.0000        0.0000        0.0000                  ANTENNA: DELTA H/E/N
G    4 C1C L1C D1C S1C                                      SYS / # / OBS TYPES 
R    4 C1C L1C D1C S1C                                      SYS / # / OBS TYPES 
E    4 C1C L1C D1C S1C                                      SYS / # / OBS TYPES 
J    4 C1C L1C D1C S1C                                      SYS / # / OBS TYPES 
S    4 C1C L1C D1C S1C                                      SYS / # / OBS TYPES 
C    4 C1I L1I D1I S1I                                      SYS / # / OBS TYPES 
  2019     9    17    15    23   40.9940000     GPS         TIME OF FIRST OBS   
  2019     9    17    15    25   41.9940000     GPS         TIME OF LAST OBS    
G                                                           SYS / PHASE SHIFT   
R                                                           SYS / PHASE SHIFT   
E                                                           SYS / PHASE SHIFT   
J                                                           SYS / PHASE SHIFT   
S                                                           SYS / PHASE SHIFT   
C                                                           SYS / PHASE SHIFT   
  0                                                         GLONASS SLOT / FRQ #
 C1C    0.000 C1P    0.000 C2C    0.000 C2P    0.000        GLONASS COD/PHS/BIS 
                                                            END OF HEADER       
> 2019  9 17 15 23 40.9940000  0 12                     
G23  19010369.089                       -1032.258          22.000  
G 9  18645599.204    97983334.433        1087.865          36.000  
G 3  19953613.761   104856929.127       -2227.939          31.000  
G 6  19398787.858   101941375.703        1393.827          43.000  
G22  21756583.564                       -2728.602          20.000  
G19  21594627.064   113480564.455       -2678.306          33.000  
G17  22088777.679   116077301.064       -2804.962          35.000  
G 7  22061806.954   115935550.0572       3346.997          28.000  
G 2  23146006.782                        3061.191          17.000  
R 5  17816861.611    95241337.383        -191.198          45.000  
R20  18832901.680   100707956.986       -2752.160          43.000  
R21  19326367.134   103419267.106        1635.110          24.000  
> 2019  9 17 15 23 41.9940000  0 11                     
G23  19010568.745                       -1042.385          20.000  
G 9  18645392.794    97982247.131        1086.975          36.000  
G 3  19954037.636   104859157.089       -2228.170          31.000  
G 6  19398522.553   101939982.306        1392.991          43.000  
G22  21757103.083                       -2731.784          18.000  
G19  21595136.479   113483243.189       -2679.007          33.000  
G17  22089311.185   116080105.937       -2805.206          35.000  
G 7  22061169.934   115932203.1722       3346.674          28.000  
R 5  17816897.541    95241528.742        -191.796          45.000  
R20  18833416.453   100710709.753       -2753.427          43.000  
R21  19326063.229   103417631.428        1634.486          24.000  
> 2019  9 17 15 23 42.9940000  0 11                     
G23  19010757.853                       -1036.620          20.000  
G 9  18645186.166    97981160.729        1085.929          37.000  
G 3  19954461.606   104861385.802       -2228.544          32.000  
G 6  19398257.380   101938589.960        1392.031          43.000  
G22  21757620.116                       -2733.673          18.000  
G19  21595646.680   113485922.802       -2679.931          33.000  
G17  22089845.118   116082911.489       -2805.518          35.000  
G 7  22060533.123   115928856.3421       3345.807          28.000  
R 5  17816933.567    95241720.968        -192.691          45.000  
R20  18833931.627   100713463.710       -2754.488          43.000  
R21  19325757.467   103415997.1972       1632.923          24.000  
> 2019  9 17 15 23 43.9940000  0 11                     
G23  19010949.570                       -1035.147          21.000  
G 9  18644980.149    97980074.782        1085.561          37.000  
G 3  19954885.996   104863614.782       -2228.741          31.000  
G 6  19397992.573   101937198.197        1391.199          43.000  
G22  21758139.975                       -2731.467          17.000  
G19  21596156.689   113488602.788       -2680.301          33.000  
G17  22090379.051   116085717.259       -2805.658          35.000  
G 7  22059893.695   115925510.118        3345.880          28.000  
R 5  17816969.358    95241913.533        -193.076          45.000  
R20  18834446.653   100716218.403       -2755.084          43.000  
R21  19325452.367                        1631.832          24.000  
> 2019  9 17 15 23 44.9940000  0 11                     
G23  19011144.847                       -1039.622          22.000  
G 9  18644773.782    97978989.333        1084.912          37.000  
G 3  19955310.158   104865843.982       -2228.617          32.000  
G 6  19397727.617   101935806.978        1391.039          42.000  
G22  21758660.489                       -2736.556          17.000  
G19  21596666.889   113491283.112       -2680.295          33.000  
G17  22090913.141   116088523.224       -2806.048          35.000  
G 7  22059255.296   115922163.974        3345.794          28.000  
R 5  17817004.703    95242106.426        -192.735          45.000  
R20  18834962.272   100718973.801       -2755.689          43.000  
R21  19325147.329                        1633.802          23.000  
> 2019  9 17 15 23 45.9940000  0 11                     
G23  19011345.934                       -1033.219          24.000  
G 9  18644567.058    97977904.477        1084.233          37.000  
G 3  19955734.626   104868073.651       -2230.035          32.000  
G 6  19397462.994   101934416.506        1389.776          42.000  
G22  21759181.387                       -2742.965          17.000  
G19  21597177.186   113493963.979       -2681.360          33.000  
G17  22091447.083   116091329.523       -2806.519          36.000  
G 7  22058617.866   115918818.102        3345.801          28.000  
R 5  17817040.816    95242299.842        -193.837          45.000  
R20  18835477.777   100721730.106       -2756.984          43.000  
R21  19324841.915                        1630.033          23.000  
> 2019  9 17 15 23 46.9940000  0 11                     
G23  19011537.747                       -1042.564          22.000  
G 9  18644361.198    97976820.286        1084.143          37.000  
G 3  19956158.876   104870303.830       -2230.558          32.000  
G 6  19397198.553   101933026.831        1389.251          42.000  
G22  21759704.047                       -2742.965          15.000  
G19  21597687.404   113496645.473       -2682.004          33.000  
G17  22091981.391   116094136.266       -2806.812          36.000  
G 7  22057980.069   115915472.549        3345.575          28.000  
R 5  17817077.532    95242493.814        -194.163          46.000  
R20  18835993.423   100724487.350       -2757.508          43.000  
R21  19324535.733                        1633.007          23.000  
> 2019  9 17 15 23 47.9940000  0 11                     
G23  19011735.423                       -1034.237          20.000  
G 9  18644155.277    97975736.527        1083.575          37.000  
G 3  19956583.029   104872534.157       -2230.726          32.000  
G 6  19396934.156   101931637.663        1388.761          42.000  
G22  21760223.793                       -2729.471          16.000  
G19  21598197.596   113499327.256       -2682.210          33.000  
G17  22092515.908   116096943.154       -2806.677          36.000  
G 7  22057342.648   115912127.086        3345.154          28.000  
R 5  17817114.648    95242688.082        -194.382          46.000  
R20  18836509.068   100727245.276       -2758.592          43.000  
R21  19324233.199                        1628.524          23.000  
> 2019  9 17 15 23 48.9940000  0 11                     
G23  19011927.751                       -1037.620          17.000  
G 9  18643949.268    97974653.145        1083.090          38.000  
G 3  19957007.436   104874764.634       -2230.011          32.000  
G 6  19396669.698   101930248.964        1388.769          42.000  
G22  21760745.467                       -2733.026          16.000  
G19  21598707.911   113502009.339       -2682.363          32.000  
G17  22093049.754   116099750.163       -2806.775          36.000  
G 7  22056703.612   115908781.572        3345.862          28.000  
R 5  17817151.529    95242882.629        -194.586          46.000  
R20  18837024.730   100730003.808       -2758.743          42.000  
R21  19323929.207                        1630.204          23.000  
> 2019  9 17 15 23 49.9940000  0 11                     
G23  19012122.469                       -1038.584          18.000  
G 9  18643743.417    97973569.798        1083.048          38.000  
G 3  19957431.389   104876995.056       -2231.022          32.000  
G 6  19396405.240   101928860.458        1388.050          42.000  
G22  21761265.571                       -2733.599          17.000  
G19  21599218.329   113504691.423       -2683.417          33.000  
G17  22093583.958   116102556.948       -2806.665          36.000  
G 7  22056065.841   115905435.786        3345.788          28.000  
R 5  17817188.532    95243077.146        -194.820          46.000  
R20  18837540.541   100732762.668       -2759.311          42.000  
R21  19323621.726                        1628.110          23.000  
> 2019  9 17 15 23 50.9940000  0 11                     
G23  19012315.076                       -1041.510          19.000  
G 9  18643538.036    97972486.948        1082.858          38.000  
G 3  19957855.779   104879225.710       -2231.170          32.000  
G 6  19396140.756   101927472.537        1387.490          42.000  
G22  21761788.188                       -2733.599          17.000  
G19  21599728.574   113507373.831       -2682.228          33.000  
G17  22094118.449   116105363.988       -2807.263          36.000  
G 7  22055428.943   115902090.148        3345.679          28.000  
R 5  17817224.672    95243271.999        -194.978          45.000  
R20  18838056.352   100735522.257       -2759.975          42.000  
R21  19323317.603                        1627.172          24.000  
> 2019  9 17 15 23 51.9940000  0 11                     
G23  19012512.194                       -1037.930          20.000  
G 9  18643332.220    97971404.348        1082.322          38.000  
G 3  19958280.316   104881456.372       -2231.019          32.000  
G 6  19395876.463   101926084.983        1387.123          42.000  
G22  21762306.476                       -2737.956          16.000  
G19  21600239.045   113510056.453       -2682.874          32.000  
G17  22094652.810   116108171.022       -2807.330          36.000  
G 7  22054792.263   115898744.363        3345.911          28.000  
R 5  17817260.610    95243466.992        -195.303          45.000  
R20  18838572.556   100738282.385       -2760.666          42.000  
R21  19323012.338                        1625.665          24.000  
> 2019  9 17 15 23 52.9940000  0 11                     
G23  19012705.900                       -1052.587          21.000  
G 9  18643126.630    97970322.316        1081.755          38.000  
G 3  19958704.609   104883687.454       -2231.238          32.000  
G 6  19395612.468   101924698.081        1386.498          42.000  
G22  21762832.051                       -2737.956          15.000  
G19  21600749.603   113512739.534       -2683.088          32.000  
G17  22095186.978   116110978.317       -2807.404          36.000  
G 7  22054153.446   115895398.859        3345.044          28.000  
R 5  17817297.169    95243662.440        -195.834          45.000  
R20  18839088.585   100741043.333       -2761.583          42.000  
R21  19322706.855                        1626.984          24.000  
> 2019  9 17 15 23 53.9940000  0 11                     
G23  19012899.719                       -1043.092          22.000  
G 9  18642921.171    97969241.141        1080.712          38.000  
G 3  19959126.399   104885919.173       -2232.674          32.000  
G 6  19395348.795   101923312.155        1385.577          42.000  
G22  21763350.540                       -2726.267          15.000  
G19  21601260.179   113515423.400       -2684.213          32.000  
G17  22095721.487   116113786.241       -2808.526          37.000  
G 7  22053516.844   115892053.782        3344.867          28.000  
R 5  17817333.849    95243858.648        -196.713          45.000  
R20  18839604.954   100743805.394       -2762.556          42.000  
R21  19322402.261                        1623.714          25.000  
> 2019  9 17 15 23 54.9940000  0 11                     
G23  19013093.329                       -1035.876          22.000  
G 9  18642715.695    97968160.701        1080.112          38.000  
G 3  19959548.676   104888151.422       -2232.657          32.000  
G 6  19395085.419   101921927.096        1384.640          42.000  
G22  21763869.449                       -2726.267          14.000  
G19  21601770.982   113518107.951       -2685.529          32.000  
G17  22096256.066   116116594.616       -2808.331          37.000  
G 7  22052881.281   115888709.116        3344.348          28.000  
R 5  17817370.695    95244055.505        -197.286          45.000  
R20  18840121.638   100746568.471       -2763.507          42.000  
R21  19322099.543                        1624.535          25.000  
> 2019  9 17 15 23 55.9940000  0 11                     
G23  19013289.435                       -1038.588          22.000  
G 9  18642510.699    97967080.802        1079.287          38.000  
G 3  19959975.579   104890383.996       -2233.309          31.000  
G 6  19394821.868   101920542.662        1384.022          42.000  
G22  21764388.305                       -2731.349          15.000  
G19  21602281.986   113520792.890       -2685.642          32.000  
G17  22096790.453   116119403.249       -2808.423          37.000  
G 7  22052244.819   115885364.639        3343.689          28.000  
R 5  17817407.690    95244252.759        -197.600          45.000  
R20  18840638.199   100749332.310       -2764.227          42.000  
R21  19321797.498                        1620.933          25.000  
> 2019  9 17 15 23 56.9940000  0 11                     
G23  19013479.442                       -1042.013          22.000  
G 9  18642305.589    97966001.545        1078.837          38.000  
G 3  19960401.373   104892617.028       -2232.855          31.000  
G 6  19394558.518   101919159.000        1383.207          42.000  
G22  21764907.807                       -2733.223          16.000  
G19  21602793.111   113523478.411       -2685.037          32.000  
G17  22097325.162   116122212.332       -2809.350          37.000  
G 7  22051608.680   115882020.411        3343.725          28.000  
R 5  17817444.902    95244450.578        -197.919          45.000  
R20  18841155.275   100752097.079       -2765.297          42.000  
R21  19321496.071                        1621.683          25.000  
> 2019  9 17 15 23 57.9940000  0 11                     
G23  19013673.645                       -1041.316          23.000  
G 9  18642100.653    97964923.125        1077.861          38.000  
G 3  19960823.642   104894850.719       -2234.626          31.000  
G 6  19394295.604   101917776.279        1382.274          42.000  
G22  21765427.404                       -2733.223          15.000  
G19  21603304.097   113526164.703       -2686.889          32.000  
G17  22097859.889   116125021.916       -2809.784          37.000  
G 7  22050972.419   115878676.684        3343.463          28.000  
R 5  17817481.705    95244649.148        -198.990          45.000  
R20  18841672.378   100754862.942       -2766.556          42.000  
R21  19321191.783                        1618.558          25.000  
> 2019  9 17 15 23 58.9940000  0 12                     
G23  19013868.520                       -1042.918          23.000  
G 9  18641895.962    97963845.412        1077.133          38.000  
G 3  19961252.542   104897084.872       -2234.644          31.000  
G 6  19394032.752   101916394.356        1381.497          42.000  
G22  21765946.758                       -2738.198          16.000  
G19  21603815.380   113528851.569       -2686.772          32.000  
G17  22098394.852   116127831.997       -2810.358          37.000  
G 7  22050333.951   115875333.310        3343.243          28.000  
R15  20471565.742                        3491.642          24.000  
R 5  17817519.362    95244848.284        -199.471          45.000  
R20  18842189.951   100757629.783       -2767.242          42.000  
R21  19320886.875                        1618.678          25.000  
> 2019  9 17 15 23 59.9940000  0 12                     
G23  19014064.888                       -1043.722          24.000  
G 9  18641691.324    97962768.257        1076.772          39.000  
G 3  19961675.544   104899319.372       -2234.221          31.000  
G 6  19393769.899   101915013.122        1380.939          42.000  
G22  21766467.228                       -2737.983          16.000  
G19  21604326.619   113531538.941       -2687.348          32.000  
G17  22098929.823   116130642.325       -2810.309          38.000  
G 7  22049695.805   115871990.101        3343.439          28.000  
R15  20470909.474                        3500.144          25.000  
R 5  17817556.880    95245047.842        -199.665          46.000  
R20  18842707.481   100760397.439       -2767.884          42.000  
R21  19320585.213                        1619.219          26.000  
> 2019  9 17 15 24  0.9940000  0 12                     
G23  19014258.821                       -1046.338          25.000  
G 9  18641487.173    97961691.449        1076.555          39.000  
G 3  19962101.382   104901554.097       -2234.961          32.000  
G 6  19393507.448   101913632.352        1380.458          42.000  
G22  21766989.155                       -2737.983          16.000  
G19  21604838.050   113534226.598       -2687.501          32.000  
G17  22099464.733   116133452.771       -2810.748          38.000  
G 7  22049059.937   115868646.954        3342.981          28.000  
R15  20470254.114                        3500.392          25.000  
R 5  17817594.390    95245247.664        -200.112          46.000  
R20  18843225.046   100763165.736       -2768.510          42.000  
R21  19320283.063                        1616.453          26.000  
> 2019  9 17 15 24  1.9940000  0 12                     
G23  19014457.282                       -1045.685          25.000  
G 9  18641282.997    97960615.175        1076.448          39.000  
G 3  19962526.870   104903789.055       -2234.785          31.000  
G 6  19393244.901   101912252.206        1380.141          42.000  
G22  21767510.332                       -2738.895          16.000  
G19  21605349.280   113536914.677       -2688.333          32.000  
G17  22099999.609   116136263.482       -2810.974          38.000  
G 7  22048423.204   115865303.926        3343.097          29.000  
R15  20469598.448                        3500.679          25.000  
R 5  17817632.161    95245447.899        -200.120          46.000  
R20  18843743.143   100765934.797       -2769.172          42.000  
R21  19319980.843                        1618.761          26.000  
> 2019  9 17 15 24  2.9940000  0 12                     
G23  19014655.316                       -1046.564          26.000  
G 9  18641078.760    97959539.368        1075.111          39.000  
G 3  19962952.341   104906024.394       -2236.369          31.000  
G 6  19392982.432   101910872.658        1379.008          43.000  
G22  21768034.004                       -2738.895          15.000  
G19  21605860.711   113539603.141       -2689.182          32.000  
G17  22100534.467   116139074.387       -2811.475          38.000  
G 7  22047786.585   115861961.030        3342.352          29.000  
R15  20468944.824                        3499.072          25.000  
R 5  17817670.001    95245648.526        -200.829          46.000  
R20  18844260.681   100768704.593       -2770.505          42.000  
R21  19319677.750                        1615.782          26.000  
> 2019  9 17 15 24  3.9940000  0 12                     
G23  19014854.650                       -1048.326          26.000  
G 9  18640874.470    97958464.302        1074.644          39.000  
G 3  19963377.420   104908260.147       -2235.748          31.000  
G 6  19392720.469   101909493.947        1378.331          43.000  
G22  21768557.345                       -2738.895          14.000  
G19  21606372.657   113542292.260       -2689.587          32.000  
G17  22101069.595   116141885.768       -2811.523          38.000  
G 7  22047148.806   115858618.491        3342.505          28.000  
R15  20468289.097                        3498.974          25.000  
R 5  17817708.252    95245849.802        -201.901          46.000  
R20  18844778.796   100771475.371       -2771.475          42.000  
R21  19319377.353                        1613.157          26.000  
> 2019  9 17 15 24  4.9940000  0 12                     
G23  19015054.071                       -1049.092          26.000  
G 9  18640670.634    97957389.962        1073.917          40.000  
G 3  19963803.092   104910496.498       -2236.530          31.000  
G 6  19392458.341   101908116.076        1377.303          43.000  
G22  21769080.093                       -2738.895          13.000  
G19  21606884.481   113544981.977       -2689.185          32.000  
G17  22101604.636   116144697.628       -2812.091          38.000  
G 7  22046513.740   115855276.361        3342.114          29.000  
R15  20467632.917                        3497.047          25.000  
R 5  17817745.997    95246051.642        -202.081          46.000  
R20  18845296.840   100774247.142       -2772.423          42.000  
R21  19319076.372                        1611.979          26.000  
> 2019  9 17 15 24  5.9940000  0 12                     
G23  19015252.419                       -1048.173          27.000  
G 9  18640466.807    97956316.285        1073.259          40.000  
G 3  19964229.933   104912733.312       -2237.242          31.000  
G 6  19392196.457   101906738.947        1376.884          43.000  
G22  21769602.351                       -2738.895          12.000  
G19  21607396.566   113547672.355       -2691.843          32.000  
G17  22102139.887   116147509.855       -2812.311          38.000  
G 7  22045878.177   115851934.490        3341.797          29.000  
R15  20466978.839                        3498.467          25.000  
R 5  17817784.134    95246254.045        -202.839          46.000  
R20  18845815.199   100777019.829       -2773.109          42.000  
R21  19318778.034                        1611.548          26.000  
> 2019  9 17 15 24  6.9940000  0 11                     
G23  19015450.810                       -1048.636          27.000  
G 9  18640263.049    97955243.144        1072.757          40.000  
G 3  19964651.129   104914970.378       -2236.059          31.000  
G 6  19391935.079   101905362.520        1375.969          43.000  
G19  21607909.541   113550363.125       -2691.769          33.000  
G17  22102675.443   116150322.400       -2812.921          38.000  
G 7  22045242.475   115848592.853        3341.351          29.000  
R15  20466324.709                        3496.221          26.000  
R 5  17817822.368    95246456.884        -203.079          46.000  
R20  18846334.177   100779793.351       -2773.940          42.000  
R21  19318479.173                        1610.840          26.000  
> 2019  9 17 15 24  7.9940000  0 11                     
G23  19015649.821    99927917.7042      -1049.748          27.000  
G 9  18640059.353    97954170.762        1071.704          40.000  
G 3  19965080.884   104917208.122       -2237.239          31.000  
G 6  19391673.308   101903986.936        1375.193          43.000  
G19  21608421.059   113553054.546       -2691.871          32.000  
G17  22103211.138   116153135.401       -2813.000          38.000  
G 7  22044605.594   115845251.544        3341.241          29.000  
R15  20465668.895                        3495.423          26.000  
R 5  17817860.680    95246660.376        -203.599          46.000  
R20  18846852.937   100782567.888       -2775.057          42.000  
R21  19318177.520                        1611.268          26.000  
> 2019  9 17 15 24  8.9940000  0 11                     
G23  19015848.082    99928967.8572      -1050.509          27.000  
G 9  18639855.761    97953098.881        1071.722          40.000  
G 3  19965505.230   104919446.165       -2238.538          30.000  
G 6  19391411.703   101902611.991        1374.423          43.000  
G19  21608935.378   113555746.399       -2692.277          33.000  
G17  22103746.554   116155948.683       -2813.495          39.000  
G 7  22043972.648   115841910.451        3341.156          29.000  
R15  20465015.628                        3496.508          26.000  
R 5  17817899.027    95246864.313        -204.297          46.000  
R20  18847371.985   100785343.200       -2775.809          42.000  
R21  19317877.167                        1609.104          26.000  
> 2019  9 17 15 24  9.9940000  0 12                     
G23  19016047.294    99930018.3922      -1051.467          27.000  
G 9  18639651.873    97952027.537        1070.990          40.000  
G 3  19965933.022   104921684.407       -2237.451          31.000  
G 6  19391150.281   101901237.634        1373.990          43.000  
G22  21771684.887                       -2738.895          10.000  
G19  21609449.261   113558438.664       -2692.727          33.000  
G17  22104281.945   116158762.188       -2813.946          39.000  
G 7  22043336.160   115838569.497        3340.533          29.000  
R15  20464362.135                        3495.483          26.000  
R 5  17817937.408    95247068.610        -204.456          46.000  
R20  18847890.998   100788119.262       -2776.736          42.000  
R21  19317574.205                        1607.830          26.000  
> 2019  9 17 15 24 10.9940000  0 12                     
G23  19016247.107    99931069.2702      -1051.081          28.000  
G 9  18639448.342    97950956.660        1070.547          40.000  
G 3  19966356.704   104923923.044       -2238.630          31.000  
G 6  19390889.008   101899863.907        1373.491          43.000  
G22  21772207.765                       -2738.895          11.000  
G19  21609959.506   113561131.374       -2693.075          33.000  
G17  22104817.710   116161575.916       -2813.898          39.000  
G 7  22042705.047   115835228.673        3340.088          29.000  
R15  20463708.476                        3494.814          26.000  
R 5  17817975.572    95247273.305        -204.877          46.000  
R20  18848410.203   100790896.062       -2777.131          42.000  
R21  19317272.874                        1606.543          26.000  
> 2019  9 17 15 24 11.9940000  0 12                     
G23  19016449.146    99932120.4292      -1051.623          28.000  
G 9  18639244.742    97949886.172        1070.386          40.000  
G 3  19966782.708   104926161.821       -2238.504          31.000  
G 6  19390628.005   101898490.644        1373.135          43.000  
G22  21772727.764                       -2737.280          12.000  
G19  21610470.666   113563824.350       -2693.091          33.000  
G17  22105353.004   116164389.754       -2813.611          39.000  
G 7  22042068.655   115831887.878        3340.729          29.000  
R15  20463055.890                        3495.102          27.000  
R 5  17818013.980    95247478.235        -204.987          46.000  
R20  18848929.548   100793673.501       -2777.680          42.000  
R21  19316972.399                        1607.524          26.000  
> 2019  9 17 15 24 12.9940000  0 11                     
G23  19016650.146    99933171.6342      -1051.699          28.000  
G 9  18639041.159    97948815.786        1069.979          40.000  
G 3  19967210.718   104928400.486       -2238.479          30.000  
G 6  19390366.784   101897117.608        1372.963          43.000  
G19  21610983.371   113566517.316       -2693.042          33.000  
G17  22105888.385   116167203.447       -2813.806          39.000  
G 7  22041431.426   115828546.780        3341.479          29.000  
R15  20462401.917   109344817.2452       3494.632          27.000  
R 5  17818052.344    95247683.166        -204.978          46.000  
R20  18849449.242   100796451.305       -2778.350          42.000  
R21  19316673.032                        1606.003          26.000  
> 2019  9 17 15 24 13.9940000  0 12                     
G23  19016850.030    99934223.2852      -1052.615          28.000  
G 9  18638837.681    97947745.967        1069.433          40.000  
G 3  19967636.975   104930639.545       -2239.662          30.000  
G 6  19390105.772   101895745.265        1371.975          43.000  
G22  21773769.943                       -2737.280          11.000  
G19  21611496.669   113569210.831       -2694.297          33.000  
G17  22106423.950   116170017.423       -2814.154          39.000  
G 7  22040798.279   115825205.959        3340.796          29.000  
R15  20461747.176   109341322.4582       3494.712          27.000  
R 5  17818090.613    95247888.582        -205.898          46.000  
R20  18849969.084   100799229.940       -2779.257          42.000  
R21  19316374.650                        1604.595          26.000  
> 2019  9 17 15 24 14.9940000  0 12                     
G23  19017051.920    99935275.5582      -1052.115          29.000  
G 9  18638634.482    97946676.974        1068.702          40.000  
G 3  19968064.269   104932879.184       -2239.467          31.000  
G 6  19389844.874   101894373.854        1370.878          43.000  
G22  21774291.548                       -2737.280          11.000  
G19  21612009.810   113571905.020       -2694.389          33.000  
G17  22106959.803   116172831.985       -2814.948          39.000  
G 7  22040161.512   115821865.567        3340.436          29.000  
R15  20461093.770   109337828.4782       3493.572          27.000  
R 5  17818129.308    95248094.699        -206.616          46.000  
R20  18850489.144   100802009.670       -2780.435          42.000  
R21  19316072.404                        1603.844          26.000  
> 2019  9 17 15 24 15.9940000  0 12                     
G23  19017253.348    99936328.5692      -1053.722          28.000  
G 9  18638430.934    97945608.688        1067.674          36.000  
G 3  19968488.615   104935119.432       -2241.188          27.000  
G 6  19389584.054   101893003.245        1370.006          39.000  
G22  21774811.625                       -2737.280          13.000  
G19  21612522.506   113574599.866       -2695.483          30.000  
G17  22107495.551   116175646.977       -2815.222          35.000  
G 7  22039523.270   115818525.551        3339.618          28.000  
R15  20460441.281   109334335.1572       3492.534          25.000  
R 5  17818168.144    95248301.395        -207.016          40.000  
R20  18851009.073   100804790.365       -2781.706          37.000  
R21  19315771.257                        1605.347          23.000  
> 2019  9 17 15 24 16.9940000  0 12                     
G23  19017454.182    99937382.4482      -1054.139          27.000  
G 9  18638227.918    97944541.448        1066.461          37.000  
G 3  19968911.879   104937360.397       -2241.075          27.000  
G 6  19389323.715   101891633.809        1368.645          41.000  
G22  21775332.872                       -2737.280          12.000  
G19  21613035.639   113577295.607       -2695.736          31.000  
G17  22108031.482   116178462.744       -2815.802          36.000  
G 7  22038887.568   115815186.193        3339.648          28.000  
R15  20459787.342                        3493.158          24.000  
R 5  17818207.189    95248509.052        -207.913          42.000  
R20  18851529.360   100807572.362       -2782.719          38.000  
R21  19315471.837                        1604.365          22.000  
> 2019  9 17 15 24 17.9940000  0 12                     
G23  19017657.495    99938436.6742      -1053.787          27.000  
G 9  18638024.396    97943474.681        1066.731          37.000  
G 3  19969331.077   104939601.691       -2240.927          28.000  
G 6  19389062.991   101890264.946        1368.662          41.000  
G22  21775855.323                       -2737.280          12.000  
G19  21613547.122   113579991.796       -2696.253          31.000  
G17  22108567.421   116181278.726       -2815.857          37.000  
G 7  22038254.343   115811846.981        3339.679          28.000  
R15  20459135.097                        3492.610          23.000  
R 5  17818245.972    95248717.086        -208.096          42.000  
R20  18852049.900   100810355.085       -2783.040          39.000  
R21  19315170.158                        1597.723          21.000  
> 2019  9 17 15 24 18.9940000  0 11                     
G23  19017859.787    99939490.5071      -1054.000          27.000  
G 9  18637821.267    97942408.065        1066.743          37.000  
G 3  19969766.093   104941842.915       -2240.731          28.000  
G 6  19388802.791   101888896.357        1368.432          41.000  
G19  21614064.198   113582688.021       -2695.337          32.000  
G17  22109103.274   116184094.598       -2815.906          37.000  
G 7  22037619.548   115808507.582        3339.832          28.000  
R15  20458479.396                        3491.963          23.000  
R 5  17818285.113    95248925.142        -207.645          42.000  
R20  18852570.266   100813138.174       -2782.767          39.000  
R21  19314870.066                        1606.794          20.000  
> 2019  9 17 15 24 19.9940000  0 11                     
G23  19018060.167    99940544.749       -1054.100          27.000  
G 9  18637618.399    97941341.481        1066.819          38.000  
G 3  19970191.084   104944084.051       -2241.247          28.000  
G 6  19388542.355   101887527.905        1368.622          41.000  
G19  21614576.519   113585384.199       -2695.908          31.000  
G17  22109639.144   116186910.230       -2814.941          37.000  
G 7  22036987.222   115805167.869        3339.679          28.000  
R15  20457824.716                        3491.597          23.000  
R 5  17818323.905    95249133.150        -207.865          42.000  
R20  18853090.422   100815921.597       -2783.632          39.000  
R21  19314571.511                        1600.502          20.000  
> 2019  9 17 15 24 20.9940000  0 11                     
G23  19018261.508    99941599.149       -1054.588          28.000  
G 9  18637415.924    97940275.169        1066.385          38.000  
G 3  19970618.309   104946325.183       -2240.767          28.000  
G 6  19388282.277   101886159.859        1367.463          41.000  
G19  21615089.224   113588080.571       -2697.176          31.000  
G17  22110175.049   116189725.894       -2815.906          37.000  
G 7  22036355.498   115801828.035        3339.953          27.000  
R15  20457169.400                        3492.464          24.000  
R 5  17818362.949    95249341.302        -208.369          42.000  
R20  18853611.311   100818705.501       -2784.173          39.000  
R21  19314272.126                        1605.300          20.000  
> 2019  9 17 15 24 21.9940000  0 10                     
G23  19018463.180    99942653.931       -1054.565          28.000  
G 9  18637213.004    97939209.362        1065.734          37.000  
G 3  19971045.046   104948566.590       -2241.244          28.000  
G 6  19388022.164   101884792.375        1367.464          41.000  
G19  21615601.274   113590777.305       -2696.721          32.000  
G17  22110710.928   116192541.773       -2815.753          37.000  
G 7  22035719.969   115798488.337        3339.935          27.000  
R 5  17818402.047    95249549.804        -208.621          42.000  
R20  18854132.008   100821490.164       -2784.853          39.000  
R21  19313973.562                        1596.414          20.000  
> 2019  9 17 15 24 22.9940000  0 10                     
G23  19018663.893    99943708.723       -1054.913          28.000  
G 9  18637010.521    97938143.657        1065.362          38.000  
G 3  19971470.107   104950807.874       -2240.861          28.000  
G 6  19387762.051   101883425.140        1366.890          41.000  
G19  21616116.736   113593474.081       -2697.450          32.000  
G17  22111246.693   116195357.461       -2815.356          37.000  
G 7  22035085.584   115795148.393        3339.758          27.000  
R 5  17818441.336    95249758.305        -208.851          42.000  
R20  18854652.809   100824275.191       -2785.427          39.000  
R21  19313675.145                        1596.228          20.000  
> 2019  9 17 15 24 23.9940000  0 10                     
G23  19018864.963    99944763.899       -1054.650          28.000  
G 9  18636807.898    97937078.503        1064.614          38.000  
G 3  19971896.704   104953049.636       -2241.771          28.000  
G 6  19387502.113   101882058.560        1366.534          41.000  
G19  21616629.904   113596171.342       -2697.823          32.000  
G17  22111782.380   116198173.504       -2815.796          37.000  
G 7  22034448.869   115791808.681        3339.423          27.000  
R 5  17818480.407    95249967.282        -208.917          42.000  
R20  18855173.890   100827061.070       -2786.188          39.000  
R21  19313378.012                        1599.454          21.000  
> 2019  9 17 15 24 24.9940000  0 10                     
G23  19019068.432    99945819.805       -1056.080          28.000  
G 9  18636605.807    97936014.063        1064.077          38.000  
G 3  19972322.890   104955291.810       -2242.301          28.000  
G 6  19387242.602   101880692.816        1365.533          41.000  
G19  21617143.202   113598869.179       -2698.401          32.000  
G17  22112318.442   116200989.961       -2816.650          37.000  
G 7  22033813.018   115788469.265        3339.166          27.000  
R 5  17818519.443    95250176.861        -209.714          42.000  
R20  18855695.303   100829847.918       -2787.263          39.000  
R21  19313080.206                        1594.290          20.000  
> 2019  9 17 15 24 25.9940000  0 10                     
G23  19019270.174    99946875.813       -1056.054          28.000  
G 9  18636403.637    97934949.876        1064.502          39.000  
G 3  19972748.108   104957534.100       -2242.006          28.000  
G 6  19386982.454   101879327.431        1365.382          41.000  
G19  21617656.692   113601567.201       -2697.854          32.000  
G17  22112854.355   116203806.400       -2816.021          37.000  
G 7  22033177.246   115785127.2883       3339.758          28.000  
R 5  17818558.575    95250386.536        -209.268          42.000  
R20  18856216.585   100832635.252       -2787.398          39.000  
R21  19312784.259                        1594.645          20.000  
> 2019  9 17 15 24 26.9940000  0 10                     
G23  19019470.363    99947931.676       -1056.434          28.000  
G 9  18636201.468    97933885.678        1063.847          38.000  
G 3  19973176.468   104959776.153       -2242.499          27.000  
G 6  19386722.786   101877962.148        1365.020          41.000  
G19  21618169.632   113604265.102       -2697.520          31.000  
G17  22113390.531   116206622.579       -2816.260          37.000  
G 7  22032540.575   115781787.3782       3339.929          27.000  
R 5  17818597.890    95250596.088        -209.773          42.000  
R20  18856737.770   100835422.835       -2788.199          39.000  
R21  19312485.782                        1600.281          19.000  
> 2019  9 17 15 24 27.9940000  0 11                     
G23  19019674.583    99948988.190       -1056.549          33.000  
G 9  18635999.848    97932822.253        1062.994          43.000  
G 3  19973604.696   104962018.726       -2243.048          32.000  
G 6  19386463.310   101876597.742        1363.696          45.000  
G19  21618682.093   113606963.714       -2698.902          35.000  
G17  22113926.706   116209439.253       -2817.102          41.000  
G 7  22031906.364   115778447.9842       3339.154          32.000  
R15  20452598.315                        3489.060          26.000  
R 5  17818637.633    95250806.305        -210.798          47.000  
R20  18857259.008   100838211.436       -2789.192          42.000  
R21  19312187.968                        1604.286          22.000  
> 2019  9 17 15 24 28.9940000  0 11                     
G23  19019863.482    99950044.920       -1057.117          30.000  
G 9  18635798.341    97931759.182        1062.674          41.000  
G 3  19974035.402   104964261.508       -2243.187          31.000  
G 6  19386203.912   101875233.795        1363.720          44.000  
G19  21619193.821   113609662.579       -2698.734          34.000  
G17  22114462.899   116212256.002       -2816.864          40.000  
G 7  22031271.534   115775108.5362       3338.995          30.000  
R15  20451944.927   109288938.6663       3489.149          27.000  
R 5  17818677.167    95251016.790        -210.702          46.000  
R20  18857780.525   100841000.653       -2789.490          41.000  
R21  19311891.288                        1594.896          22.000  
> 2019  9 17 15 24 29.9940000  0 11                     
G23  19020073.015    99951102.181       -1056.952          33.000  
G 9  18635596.756    97930696.638        1062.526          41.000  
G 3  19974461.118   104966504.619       -2243.661          30.000  
G 6  19385944.305   101873870.532        1362.694          44.000  
G19  21619708.820   113612361.921       -2699.857          34.000  
G17  22114999.301   116215073.054       -2817.303          40.000  
G 7  22030631.748   115771769.2912       3338.580          30.000  
R15  20451290.796   109285450.1002       3488.345          27.000  
R 5  17818716.744    95251227.707        -211.270          46.000  
R20  18858302.383   100843790.672       -2790.616          41.000  
R21  19311592.095                        1600.746          23.000  
> 2019  9 17 15 24 30.9940000  0 11                     
G23  19020272.550    99952159.770       -1057.898          32.000  
G 9  18635394.674    97929634.586        1061.655          41.000  
G 3  19974886.013   104968747.953       -2243.765          31.000  
G 6  19385684.812   101872507.827        1362.071          44.000  
G19  21620221.839   113615061.626       -2700.324          33.000  
G17  22115535.302   116217890.284       -2817.596          40.000  
G 7  22029999.762   115768430.1512       3338.727          30.000  
R15  20450639.807   109281961.9792       3487.828          27.000  
R 5  17818756.714    95251438.984        -211.746          46.000  
R20  18858823.909   100846581.423       -2791.385          41.000  
R21  19311294.281                        1595.011          23.000  
> 2019  9 17 15 24 31.9940000  0 11                     
G23  19020471.744    99953217.863       -1058.197          32.000  
G 9  18635193.473    97928573.195        1060.763          42.000  
G 3  19975314.538   104970991.808       -2244.299          30.000  
G 6  19385425.999   101871145.888        1361.464          44.000  
G19  21620737.720   113617761.883       -2700.466          33.000  
G17  22116071.512   116220707.913       -2818.048          40.000  
G 7  22029361.537   115765091.2972       3338.623          31.000  
R15  20449985.852   109278474.3792       3487.185          27.000  
R 5  17818796.666    95251650.822        -212.065          46.000  
R20  18859345.601   100849373.082       -2792.141          42.000  
R21  19310996.380                        1591.804          23.000  
> 2019  9 17 15 24 32.9940000  0 11                     
G23  19020672.264    99954276.117       -1057.544          32.000  
G 9  18634991.714    97927512.007        1061.593          42.000  
G 3  19975740.681   104973235.668       -2244.324          31.000  
G 6  19385166.881   101869784.295        1362.045          44.000  
G19  21621253.121   113620462.274       -2699.839          33.000  
G17  22116607.487   116223525.505       -2817.248          40.000  
G 7  22028727.266   115761752.3222       3339.673          30.000  
R15  20449333.406   109274987.0032       3487.162          27.000  
R 5  17818835.868    95251862.766        -211.464          46.000  
R20  18859867.571   100852165.230       -2791.954          41.000  
R21  19310700.101                        1594.392          22.000  
> 2019  9 17 15 24 33.9940000  0 11                     
G23  19020874.416    99955334.485       -1058.832          32.000  
G 9  18634790.181    97926451.058        1060.603          42.000  
G 3  19976167.234   104975479.473       -2243.396          31.000  
G 6  19384908.103   101868423.043        1360.840          44.000  
G19  21621766.558   113623162.803       -2700.788          33.000  
G17  22117143.898   116226343.039       -2817.804          40.000  
G 7  22028090.403   115758413.2562       3337.817          30.000  
R15  20448678.228   109271499.7302       3486.617          27.000  
R 5  17818875.462    95252074.815        -212.490          46.000  
R20  18860389.534   100854957.837       -2793.375          41.000  
R21  19310404.800                        1591.987          23.000  
> 2019  9 17 15 24 34.9940000  0 11                     
G23  19021075.644    99956393.952       -1059.662          32.000  
G 9  18634588.448    97925391.336        1059.302          42.000  
G 3  19976594.075   104977724.397       -2245.035          31.000  
G 6  19384649.648   101867063.129        1359.575          44.000  
G19  21622280.075   113625864.490       -2701.903          33.000  
G17  22117680.396   116229161.556       -2818.866          40.000  
G 7  22027456.733   115755075.0002       3337.805          30.000  
R15  20448022.571   109268013.6262       3485.409          27.000  
R 5  17818915.362    95252287.966        -213.539          46.000  
R20  18860912.019   100857751.925       -2794.647          41.000  
R21  19310107.344                        1586.588          22.000  
> 2019  9 17 15 24 35.9940000  0 11                     
G23  19021277.106    99957453.937       -1060.431          32.000  
G 9  18634386.741    97924332.222        1059.090          42.000  
G 3  19977021.632   104979969.713       -2245.317          31.000  
G 6  19384390.974   101865703.952        1358.842          44.000  
G19  21622794.551   113628566.658       -2701.188          33.000  
G17  22118216.799   116231980.429       -2818.896          40.000  
G 7  22026821.048   115751737.0652       3337.622          30.000  
R15  20447369.261   109264528.0692       3485.293          27.000  
R 5  17818955.349    95252501.625        -213.875          46.000  
R20  18861434.653   100860546.877       -2795.381          41.000  
R21  19309812.042                        1587.801          23.000  
> 2019  9 17 15 24 36.9940000  0 11                     
G23  19021478.979    99958514.108       -1060.699          32.000  
G 9  18634185.488    97923273.414        1058.702          42.000  
G 3  19977449.171   104982215.120       -2245.505          31.000  
G 6  19384132.563   101864345.160        1358.725          44.000  
G19  21623308.913   113631269.069       -2702.591          33.000  
G17  22118753.480   116234799.326       -2818.945          40.000  
G 7  22026188.966   115748398.5141       3338.422          30.000  
R15  20446721.056   109261042.806        3485.000          27.000  
R 5  17818995.555    95252715.434        -213.604          46.000  
R20  18861957.034   100863342.359       -2795.852          41.000  
R21  19309515.467                        1583.429          22.000  
> 2019  9 17 15 24 37.9940000  0 11                     
G23  19021680.634    99959574.164       -1060.419          32.000  
G 9  18633983.938    97922214.645        1058.549          42.000  
G 3  19977876.640   104984460.330       -2244.774          31.000  
G 6  19383874.204   101862986.536        1358.651          44.000  
G19  21623823.084   113633971.413       -2702.042          33.000  
G17  22119289.935   116237617.977       -2818.512          40.000  
G 7  22025553.455   115745060.198        3338.367          30.000  
R15  20446070.477   109257557.474        3485.107          27.000  
R 5  17819035.202    95252929.201        -213.741          46.000  
R20  18862480.000   100866138.130       -2796.053          42.000  
R21  19309219.991                        1585.338          22.000  
> 2019  9 17 15 24 38.9940000  0 11                     
G23  19021882.140    99960634.213       -1060.309          32.000  
G 9  18633782.510    97921155.906        1058.733          42.000  
G 3  19978303.961   104986705.396       -2244.672          31.000  
G 6  19383615.565   101861628.085        1358.093          45.000  
G19  21624337.691   113636673.714       -2702.209          33.000  
G17  22119826.215   116240436.448       -2818.823          40.000  
G 7  22024915.222   115741721.542        3338.995          30.000  
R15  20445418.083   109254072.122        3484.631          27.000  
R 5  17819075.110    95253142.921        -213.959          46.000  
R20  18863003.140   100868934.200       -2796.310          42.000  
R21  19308923.434                        1587.824          22.000  
> 2019  9 17 15 24 39.9940000  0 11                     
G23  19022083.961    99961694.384       -1060.372          30.000  
G 9  18633580.846    97920097.460        1057.693          39.000  
G 3  19978730.348   104988950.581       -2245.513          29.000  
G 6  19383357.101   101860269.991        1357.387          41.000  
G19  21624848.232   113639376.174       -2702.993          31.000  
G17  22120362.573   116243254.887       -2818.842          37.000  
G 7  22024278.062   115738382.800        3338.647          28.000  
R15  20444766.012   109250586.861        3485.165          25.000  
R 5  17819115.167    95253356.795        -214.450          40.000  
R20  18863526.079   100871730.798       -2797.231          36.000  
R21  19308623.813                        1597.539          20.000  
> 2019  9 17 15 24 40.9940000  0 11                     
G23  19022287.736    99962755.604       -1061.761          31.000  
G 9  18633379.645    97919040.086        1057.067          40.000  
G 3  19979159.537   104991196.631       -2246.011          29.000  
G 6  19383099.300   101858913.098        1356.493          43.000  
G19  21625367.847   113642079.666       -2703.870          31.000  
G17  22120899.089   116246074.162       -2819.702          38.000  
G 7  22023643.529   115735044.800        3337.884          28.000  
R15  20444115.407                        3482.882          25.000  
R 5  17819155.268    95253571.674        -215.344          42.000  
R20  18864049.621   100874528.759       -2798.667          38.000  
R21  19308328.128                        1584.521          20.000  
> 2019  9 17 15 24 41.9940000  0 11                     
G23  19022492.723    99963817.409       -1061.804          31.000  
G 9  18633178.086    97917983.481        1056.391          40.000  
G 3  19979587.957   104993443.240       -2246.998          29.000  
G 6  19382841.238   101857557.095        1355.851          43.000  
G19  21625879.880   113644783.831       -2704.775          31.000  
G17  22121435.727   116248893.925       -2820.270          38.000  
G 7  22023006.884   115731707.198        3337.927          28.000  
R15  20443463.266                        3482.816          23.000  
R 5  17819195.491    95253787.201        -215.876          42.000  
R20  18864573.319   100877327.728       -2799.459          39.000  
R21  19308033.403                        1582.409          19.000  
> 2019  9 17 15 24 42.9940000  0 11                     
G23  19022691.953    99964879.323       -1061.285          32.000  
G 9  18632976.947    97916927.060        1056.727          40.000  
G 3  19980011.509   104995689.721       -2245.618          29.000  
G 6  19382583.577   101856201.384        1355.999          43.000  
G19  21626393.562   113647488.066       -2704.347          31.000  
G17  22121972.478   116251713.606       -2819.635          38.000  
G 7  22022373.066   115728369.477        3338.385          28.000  
R15  20442814.187                        3483.107          23.000  
R 5  17819235.783    95254002.765        -215.310          42.000  
R20  18865096.739   100880127.120       -2799.063          39.000  
R21  19307738.590                        1581.872          19.000  
> 2019  9 17 15 24 43.9940000  0 11                     
G23  19022895.213    99965940.741       -1061.078          32.000  
G 9  18632775.763    97915870.258        1057.199          40.000  
G 3  19980439.789   104997935.747       -2245.448          29.000  
G 6  19382325.854   101854845.418        1355.967          43.000  
G19  21626912.706   113650191.832       -2704.108          31.000  
G17  22122509.020   116254532.646       -2818.958          38.000  
G 7  22021735.819   115725030.992        3338.714          28.000  
R15  20442162.701                        3483.909          23.000  
R 5  17819275.954    95254217.807        -214.715          42.000  
R20  18865620.280   100882926.404       -2799.225          39.000  
R21  19307443.350                        1578.693          20.000  
> 2019  9 17 15 24 44.9940000  0 11                     
G23  19023097.138    99967002.266       -1061.768          32.000  
G 9  18632574.536    97914813.657        1055.924          40.000  
G 3  19980865.732   105000181.761       -2246.577          29.000  
G 6  19382067.870   101853489.734        1355.184          43.000  
G19  21627425.298   113652895.703       -2705.092          31.000  
G17  22123045.457   116257351.583       -2819.019          38.000  
G 7  22021097.411   115721692.293        3339.056          28.000  
R15  20441512.087                        3483.905          22.000  
R 5  17819316.019    95254432.941        -216.079          42.000  
R20  18866144.031   100885726.112       -2800.602          39.000  
R21  19307148.572                        1583.540          19.000  
> 2019  9 17 15 24 45.9940000  0 11                     
G23  19023298.566    99968064.784       -1062.830          32.000  
G 9  18632373.684    97913758.146        1054.950          40.000  
G 3  19981294.719   105002428.671       -2247.222          29.000  
G 6  19381809.921   101852135.293        1353.818          43.000  
G19  21627938.578   113655600.492       -2704.549          31.000  
G17  22123582.112   116260171.391       -2819.904          38.000  
G 7  22020461.141   115718354.427        3337.896          28.000  
R15  20440859.414                        3481.276          21.000  
R 5  17819356.635    95254649.084        -216.689          42.000  
R20  18866667.790   100888527.193       -2801.944          39.000  
R21  19306852.704                        1584.001          19.000  
> 2019  9 17 15 24 46.9940000  0 10                     
G23  19023503.833    99969128.013       -1063.519          32.000  
G 9  18632172.692    97912703.453        1054.524          40.000  
G 3  19981718.785   105004676.188       -2247.926          29.000  
G 6  19381552.147   101850781.770        1353.209          43.000  
G19  21628454.503   113658306.204       -2707.061          31.000  
G17  22124118.611   116262991.733       -2820.361          38.000  
G 7  22019827.419   115715017.007        3337.488          28.000  
R 5  17819396.901    95254865.961        -217.109          42.000  
R20  18867192.370   100891329.344       -2802.634          39.000  
R21  19306557.140                        1586.797          19.000  
> 2019  9 17 15 24 47.9940000  0 10                     
G23  19023706.002    99970191.715       -1063.684          32.000  
G 9  18631971.831    97911649.403        1053.455          40.000  
G 3  19982148.698   105006924.067       -2247.656          29.000  
G 6  19381294.695   101849428.993        1352.257          43.000  
G19  21628968.839   113661012.286       -2707.082          31.000  
G17  22124655.283   116265812.449       -2820.770          38.000  
G 7  22019192.275   115711679.871        3336.353          28.000  
R 5  17819437.577    95255083.362        -217.821          42.000  
R20  18867716.618   100894132.415       -2803.770          39.000  
R21  19306262.633                        1565.054          19.000  
> 2019  9 17 15 24 48.9940000  0 10                     
G23  19023908.294    99971255.865       -1064.093          33.000  
G 9  18631770.918    97910595.859        1053.306          40.000  
G 3  19982580.966   105009172.349       -2248.533          30.000  
G 6  19381037.400   101848076.845        1351.771          43.000  
G19  21629483.027   113663718.800       -2706.292          31.000  
G17  22125191.930   116268633.414       -2821.118          38.000  
G 7  22018557.986   115708342.845        3337.079          28.000  
R 5  17819478.184    95255301.145        -218.157          42.000  
R20  18868241.050   100896936.226       -2803.979          39.000  
R21  19305966.494                        1574.111          19.000  
> 2019  9 17 15 24 49.9940000  0 10                     
G23  19024110.743    99972320.346       -1063.995          33.000  
G 9  18631570.311    97909542.761        1052.819          40.000  
G 3  19983002.912   105011420.874       -2249.220          30.000  
G 6  19380780.193   101846725.270        1351.221          43.000  
G19  21629997.032   113666425.717       -2706.314          31.000  
G17  22125728.725   116271454.561       -2821.057          38.000  
G 7  22017924.115   115705005.887        3337.042          28.000  
R 5  17819518.433    95255519.245        -218.262          42.000  
R20  18868765.586   100899740.787       -2804.981          39.000  
R21  19305673.418                        1578.215          19.000  
> 2019  9 17 15 24 50.9940000  0 10                     
G23  19024313.322    99973385.227       -1064.600          32.000  
G 9  18631369.843    97908490.136        1052.644          39.000  
G 3  19983434.805   105013669.558       -2248.160          29.000  
G 6  19380523.003   101845374.254        1350.750          42.000  
G19  21630512.590   113669133.027       -2707.516          30.000  
G17  22126265.711   116274275.897       -2821.478          38.000  
G 7  22017286.851   115701669.124        3336.621          28.000  
R 5  17819559.624    95255737.704        -218.457          42.000  
R20  18869290.113   100902546.018       -2805.469          39.000  
R21  19305382.514                        1566.502          20.000  
> 2019  9 17 15 24 51.9940000  0 10                     
G23  19024516.190    99974450.395       -1065.131          32.000  
G 9  18631169.139    97907437.957        1051.467          39.000  
G 3  19983861.384   105015918.548       -2248.865          29.000  
G 6  19380265.909   101844023.798        1349.786          42.000  
G19  21631031.987   113671840.648       -2708.003          31.000  
G17  22126802.768   116277097.391       -2821.674          38.000  
G 7  22016651.357   115698332.374        3336.719          28.000  
R 5  17819600.833    95255956.498        -219.224          42.000  
R20  18869814.632   100905351.942       -2806.406          39.000  
R21  19305088.888                        1578.093          20.000  
> 2019  9 17 15 24 52.9940000  0 10                     
G23  19024718.787    99975515.841       -1064.954          32.000  
G 9  18630968.173    97906386.156        1051.532          39.000  
G 3  19984294.237   105018167.739       -2249.026          29.000  
G 6  19380008.945   101842673.855        1349.752          42.000  
G19  21631549.020   113674548.569       -2707.450          31.000  
G17  22127339.755   116279919.025       -2821.527          38.000  
G 7  22016017.600   115694995.734        3336.304          28.000  
R 5  17819641.483    95256175.630        -219.282          42.000  
R20  18870339.831   100908158.521       -2806.923          39.000  
R21  19304797.469                        1566.752          21.000  
> 2019  9 17 15 24 53.9940000  0 10                     
G23  19024921.890    99976581.440       -1066.167          32.000  
G 9  18630767.793    97905334.561        1051.782          39.000  
G 3  19984718.844   105020416.989       -2249.039          29.000  
G 6  19379751.738   101841324.230        1349.742          42.000  
G19  21632057.737   113677256.621       -2708.010          31.000  
G17  22127876.401   116282740.596       -2821.252          38.000  
G 7  22015381.453   115691658.887        3337.243          28.000  
R 5  17819682.326    95256394.823        -218.865          42.000  
R20  18870864.934   100910965.526       -2807.087          39.000  
R21  19304504.000                        1570.895          21.000  
> 2019  9 17 15 24 54.9940000  0 10                     
G23  19025128.064    99977647.021       -1065.778          33.000  
G 9  18630567.438    97904283.122        1051.047          39.000  
G 3  19985146.488   105022666.069       -2249.286          29.000  
G 6  19379494.932   101839974.863        1348.966          42.000  
G19  21632575.145   113679964.738       -2708.997          31.000  
G17  22128413.275   116285562.048       -2821.716          38.000  
G 7  22014747.957   115688321.919        3336.371          28.000  
R 5  17819723.412    95256614.046        -219.520          42.000  
R20  18871390.099   100913772.939       -2807.919          39.000  
R21  19304211.482                        1563.480          22.000  
> 2019  9 17 15 24 55.9940000  0 10                     
G23  19025335.242    99978713.200       -1066.858          32.000  
G 9  18630367.153    97903232.341        1050.656          39.000  
G 3  19985575.807   105024915.719       -2250.185          29.000  
G 6  19379238.257   101838626.299        1348.058          42.000  
G19  21633090.031   113682673.391       -2709.142          31.000  
G17  22128950.401   116288383.886       -2821.899          38.000  
G 7  22014114.741   115684985.163        3336.389          28.000  
R 5  17819764.568    95256833.809        -220.197          42.000  
R20  18871915.333   100916581.279       -2808.839          39.000  
R21  19303918.650                        1567.981          23.000  
> 2019  9 17 15 24 56.9940000  0 10                     
G23  19025530.361    99979779.771       -1066.815          32.000  
G 9  18630167.051    97902182.144        1049.862          39.000  
G 3  19985996.724   105027165.671       -2250.359          29.000  
G 6  19378981.712   101837278.384        1347.747          42.000  
G19  21633606.967   113685382.554       -2709.540          31.000  
G17  22129487.301   116291206.017       -2822.058          38.000  
G 7  22013478.646   115681648.665        3336.389          28.000  
R 5  17819805.829    95257053.989        -220.401          42.000  
R20  18872440.593   100919390.435       -2809.388          39.000  
R21  19303626.455                        1571.822          22.000  
> 2019  9 17 15 24 57.9940000  0 10                     
G23  19025731.484    99980846.630       -1067.200          32.000  
G 9  18629967.028    97901132.266        1049.818          39.000  
G 3  19986424.882   105029415.773       -2250.337          29.000  
G 6  19378725.430   101835930.913        1347.431          42.000  
G19  21634121.286   113688091.931       -2709.467          31.000  
G17  22130024.323   116294028.202       -2821.826          38.000  
G 7  22012844.688   115678312.092        3337.256          28.000  
R 5  17819847.352    95257274.397        -220.377          42.000  
R20  18872966.167   100922200.184       -2809.980          39.000  
R21  19303334.722                        1574.074          23.000  
> 2019  9 17 15 24 58.9940000  0 10                     
G23  19025934.360    99981913.304       -1066.315          35.000  
G 9  18629766.883    97900082.354        1050.159          43.000  
G 3  19986854.847   105031665.631       -2249.865          32.000  
G 6  19378468.903   101834583.554        1347.457          46.000  
G19  21634637.481   113690801.153       -2708.909          34.000  
G17  22130561.510   116296850.107       -2821.429          42.000  
G 7  22012215.250   115674975.258        3336.841          32.000  
R 5  17819888.605    95257494.670        -220.007          47.000  
R20  18873491.454   100925010.146       -2809.881          42.000  
R21  19303043.958                        1567.944          25.000  
> 2019  9 17 15 24 59.9940000  0 10                     
G23  19026138.807    99982979.599       -1065.802          35.000  
G 9  18629566.589    97899032.171        1050.299          42.000  
G 3  19987279.603   105033914.969       -2248.811          32.000  
G 6  19378212.262   101833236.021        1347.613          45.000  
G19  21635156.643   113693510.046       -2708.707          34.000  
G17  22131098.541   116299671.464       -2820.978          41.000  
G 7  22011574.644   115671637.708        3337.952          31.000  
R 5  17819929.709    95257714.568        -219.724          46.000  
R20  18874016.810   100927820.071       -2809.925          42.000  
R21  19302751.745   103292891.7823       1567.917          26.000  
> 2019  9 17 15 25  0.9940000  0 10                     
G23  19026343.280    99984045.946       -1066.901          35.000  
G 9  18629366.305    97897982.082        1049.888          42.000  
G 3  19987713.511   105036164.277       -2250.264          32.000  
G 6  19377955.910   101831888.693        1347.006          45.000  
G19  21635671.607   113696218.913       -2709.056          34.000  
G17  22131635.353   116302492.649       -2821.417          41.000  
G 7  22010937.231   115668299.884        3338.904          31.000  
R 5  17819971.083    95257934.459        -220.009          46.000  
R20  18874542.166   100930630.315       -2810.562          42.000  
R21  19302457.988   103291324.4422       1566.958          26.000  
> 2019  9 17 15 25  1.9940000  0 10                     
G23  19026546.296    99985112.525       -1066.815          35.000  
G 9  18629166.185    97896932.393        1049.358          42.000  
G 3  19988139.898   105038413.731       -2249.634          32.000  
G 6  19377699.723   101830541.902        1346.270          45.000  
G19  21636184.897   113698928.127       -2709.873          33.000  
G17  22132172.366   116305313.950       -2821.588          41.000  
G 7  22010302.183   115664962.205        3337.665          31.000  
R 5  17820012.632    95258154.651        -220.542          46.000  
R20  18875068.002   100933441.220       -2811.420          42.000  
R21  19302163.839   103289757.8522       1565.747          27.000  
> 2019  9 17 15 25  2.9940000  0 10                     
G23  19026749.451    99986179.687       -1067.480          35.000  
G 9  18628966.101    97895883.398        1048.654          42.000  
G 3  19988567.542   105040663.734       -2251.081          32.000  
G 6  19377443.851   101829195.890        1345.572          46.000  
G19  21636700.813   113701637.888       -2709.906          33.000  
G17  22132709.056   116308135.677       -2821.759          41.000  
G 7  22009664.945   115661624.800        3337.427          31.000  
R 5  17820053.753    95258375.403        -220.947          46.000  
R20  18875593.568   100936253.043       -2812.148          41.000  
R21  19301874.453   103288192.3272       1564.911          27.000  
> 2019  9 17 15 25  3.9940000  0 10                     
G23  19026952.816    99987247.207       -1067.303          35.000  
G 9  18628766.104    97894834.842        1048.424          42.000  
G 3  19988993.982   105042913.887       -2250.556          31.000  
G 6  19377187.900   101827850.444        1345.236          46.000  
G19  21637216.205   113704348.035       -2710.327          34.000  
G17  22133246.209   116310957.582       -2822.021          41.000  
G 7  22009031.973   115658287.428        3338.983          31.000  
R 5  17820095.145    95258596.473        -221.014          46.000  
R20  18876119.587   100939065.583       -2812.955          41.000  
R21  19301584.317   103286627.6242       1564.876          27.000  
> 2019  9 17 15 25  4.9940000  0 11                     
G23  19027155.971    99988314.829       -1067.877          34.000  
G 9  18628566.116    97893786.510        1048.019          41.000  
G 3  19989422.071   105045164.099       -2250.406          31.000  
G 6  19376931.774   101826505.325        1344.874          46.000  
G22  21800411.130                       -2745.325          16.000  
G19  21637732.260   113707058.310       -2710.344          34.000  
G17  22133783.239   116313779.439       -2822.131          41.000  
G 7  22008396.148   115654950.083        3337.006          31.000  
R 5  17820136.668    95258817.650        -221.292          46.000  
R20  18876645.441   100941878.579       -2813.159          41.000  
R21  19301291.659   103285063.5902       1564.429          27.000  
> 2019  9 17 15 25  5.9940000  0 11                     
G23  19027359.179    99989383.160       -1068.658          34.000  
G 9  18628366.329    97892739.018        1047.217          41.000  
G 3  19989850.875   105047414.943       -2251.317          31.000  
G 6  19376675.858   101825161.164        1343.762          46.000  
G22  21800933.066                       -2745.325          16.000  
G19  21638248.333   113709769.284       -2711.405          33.000  
G17  22134320.226   116316601.852       -2822.577          41.000  
G 7  22007763.124   115651613.063        3337.573          31.000  
R 5  17820178.383    95259039.545        -222.349          46.000  
R20  18877171.312   100944692.690       -2814.521          41.000  
R21  19301000.834   103283500.8812       1561.653          26.000  
> 2019  9 17 15 25  6.9940000  0 11                     
G23  19027562.160    99990452.151       -1069.916          34.000  
G 9  18628166.768    97891692.256        1046.464          41.000  
G 3  19990279.348   105049666.302       -2251.681          31.000  
G 6  19376420.108   101823817.858        1342.783          46.000  
G22  21801453.134                       -2745.325          15.000  
G19  21638764.388   113712480.928       -2712.206          33.000  
G17  22134857.413   116319424.744       -2823.260          41.000  
G 7  22007126.810   115648276.564        3335.736          31.000  
R 5  17820220.272    95259262.062        -223.028          46.000  
R20  18877697.488   100947507.808       -2815.707          41.000  
R21  19300709.764   103281939.142        1561.134          26.000  
> 2019  9 17 15 25  7.9940000  0 11                     
G23  19027765.254    99991521.604       -1069.391          34.000  
G 9  18627967.094    97890646.110        1045.749          41.000  
G 3  19990707.742   105051918.110       -2252.292          31.000  
G 6  19376164.881   101822475.265        1342.285          46.000  
G22  21801976.641                       -2745.325          15.000  
G19  21639280.417   113715193.066       -2712.518          33.000  
G17  22135394.706   116322247.961       -2823.419          41.000  
G 7  22006494.999   115644940.187        3336.255          31.000  
R 5  17820262.126    95259485.076        -222.988          45.000  
R20  18878224.101   100950323.742       -2816.200          41.000  
R21  19300419.227   103280378.482        1559.845          26.000  
> 2019  9 17 15 25  8.9940000  0 11                     
G23  19027968.951    99992591.566       -1070.734          34.000  
G 9  18627767.725    97889600.525        1044.726          41.000  
G 3  19991136.275   105054170.298       -2253.237          31.000  
G 6  19375909.401   101821133.371        1341.386          46.000  
G22  21802498.891                       -2745.325          16.000  
G19  21639796.438   113717905.732       -2713.656          33.000  
G17  22135932.015   116325071.499       -2823.871          41.000  
G 7  22005857.045   115641604.088        3336.310          31.000  
R 5  17820303.815    95259708.608        -223.962          46.000  
R20  18878750.653   100953140.531       -2817.335          42.000  
R21  19300125.479   103278818.807        1558.800          26.000  
> 2019  9 17 15 25  9.9940000  0 11                     
G23  19028172.525    99993662.139       -1070.911          34.000  
G 9  18627568.173    97888555.728        1044.143          41.000  
G 3  19991564.765   105056422.952       -2252.537          30.000  
G 6  19375654.374   101819792.360        1340.482          46.000  
G22  21803022.153                       -2745.325          15.000  
G19  21640312.484   113720619.021       -2713.502          34.000  
G17  22136469.430   116327895.524       -2824.359          41.000  
G 7  22005222.381   115638268.480        3334.619          31.000  
R 5  17820345.591    95259932.793        -224.398          45.000  
R20  18879277.335   100955958.328       -2818.275          42.000  
R21  19299832.996   103277260.256        1558.027          26.000  
> 2019  9 17 15 25 10.9940000  0 11                     
G23  19028376.082    99994733.444       -1071.338          34.000  
G 9  18627369.057    97887511.724        1043.271          41.000  
G 3  19991992.156   105058676.380       -2253.990          30.000  
G 6  19375399.497   101818452.302        1339.246          46.000  
G22  21803544.116                       -2745.325          15.000  
G19  21640828.836   113723333.083       -2714.651          34.000  
G17  22137006.888   116330720.109       -2825.189          41.000  
G 7  22004594.836   115634933.230        3335.278          31.000  
R 5  17820387.672    95260157.701        -225.621          45.000  
R20  18879804.646   100958777.196       -2819.694          42.000  
R21  19299539.745   103275702.968        1556.707          26.000  
> 2019  9 17 15 25 11.9940000  0 11                     
G23  19028579.874    99995805.594       -1072.369          34.000  
G 9  18627170.142    97886468.666        1042.780          41.000  
G 3  19992417.715   105060930.456       -2254.669          30.000  
G 6  19375144.915   101817113.261        1338.728          46.000  
G22  21804067.989                       -2745.325          14.000  
G19  21641345.171   113726047.937       -2715.126          33.000  
G17  22137544.529   116333545.352       -2825.403          42.000  
G 7  22003953.384   115631598.579        3335.065          31.000  
R 5  17820429.806    95260383.406        -225.860          45.000  
R20  18880331.834   100961597.230       -2820.263          42.000  
R21  19299245.944   103274146.950        1555.657          25.000  
> 2019  9 17 15 25 12.9940000  0 11                     
G23  19028783.396    99996878.185       -1073.096          33.000  
G 9  18626971.498    97885426.166        1042.069          41.000  
G 3  19992849.136   105063184.884       -2254.833          30.000  
G 6  19374890.308   101815774.905        1338.069          46.000  
G22  21804591.399                       -2745.325          14.000  
G19  21641862.220   113728763.272       -2715.479          33.000  
G17  22138081.978   116336370.873       -2825.909          42.000  
G 7  22003318.361   115628264.196        3334.314          31.000  
R 5  17820472.393    95260609.576        -226.370          45.000  
R20  18880859.459   100964418.102       -2821.297          42.000  
R21  19298953.226                        1555.608          26.000  
> 2019  9 17 15 25 13.9940000  0 11                     
G23  19028987.302    99997951.139       -1073.328          34.000  
G 9  18626772.932    97884384.147        1041.982          41.000  
G 3  19993275.873   105065439.568       -2254.494          30.000  
G 6  19374635.744   101814437.145        1337.606          46.000  
G22  21805114.923                       -2745.325          14.000  
G19  21642378.695   113731478.992       -2715.512          33.000  
G17  22138619.907   116339196.597       -2825.824          42.000  
G 7  22002682.074   115624929.857        3335.046          31.000  
R 5  17820514.797    95260836.110        -226.461          45.000  
R20  18881387.215   100967239.698       -2821.714          42.000  
R21  19298664.084                        1552.799          26.000  
> 2019  9 17 15 25 14.9940000  0 10                     
G23  19029191.007    99999024.405       -1073.615          34.000  
G 9  18626574.549    97883342.572        1040.883          41.000  
G 3  19993706.762   105067694.554       -2255.660          30.000  
G 6  19374381.294   101813099.938        1336.759          46.000  
G19  21642895.343   113734195.050       -2716.452          33.000  
G17  22139157.601   116342022.497       -2826.349          42.000  
G 7  22002048.937   115621595.748        3332.306          31.000  
R 5  17820557.166    95261062.974        -227.312          45.000  
R20  18881915.258   100970062.002       -2823.037          42.000  
R21  19298373.032                        1551.912          25.000  
> 2019  9 17 15 25 15.9940000  0 10                     
G23  19029394.922   100000098.152       -1073.846          34.000  
G 9  18626376.288    97882301.572        1040.494          41.000  
G 3  19994130.201   105069949.835       -2255.034          30.000  
G 6  19374127.149   101811763.426        1336.141          46.000  
G19  21643412.611   113736911.609       -2716.958          33.000  
G17  22139695.390   116344848.679       -2826.294          42.000  
G 7  22001414.176   115618261.703        3334.460          31.000  
R 5  17820599.806    95261290.296        -227.635          45.000  
R20  18882443.477   100972885.130       -2823.615          42.000  
R21  19298081.003                        1551.225          25.000  
> 2019  9 17 15 25 16.9940000  0 10                     
G23  19029598.984   100001172.094       -1074.725          34.000  
G 9  18626178.446    97881260.824        1040.318          41.000  
G 3  19994561.448   105072205.226       -2255.574          29.000  
G 6  19373872.812   101810427.286        1335.708          46.000  
G19  21643929.417   113739628.325       -2717.400          33.000  
G17  22140233.075   116347674.891       -2826.428          42.000  
G 7  22000774.381   115614927.675        3334.277          31.000  
R 5  17820642.140    95261517.763        -227.937          45.000  
R20  18882971.372   100975708.779       -2824.115          42.000  
R21  19297787.717                        1551.759          25.000  
> 2019  9 17 15 25 17.9940000  0 10                     
G23  19029803.466   100002246.489       -1074.609          33.000  
G 9  18625980.622    97880220.707        1039.770          41.000  
G 3  19994990.488   105074461.019       -2255.899          29.000  
G 6  19373618.798   101809091.900        1334.758          46.000  
G19  21644446.493   113742345.554       -2717.507          33.000  
G17  22140770.795   116350501.438       -2827.032          42.000  
G 7  22000145.572   115611593.865        3334.021          31.000  
R 5  17820684.771    95261745.754        -228.398          45.000  
R20  18883499.398   100978533.313       -2825.175          42.000  
R21  19297495.504                        1550.738          24.000  
> 2019  9 17 15 25 18.9940000  0 10                     
G23  19030007.764   100003321.336       -1074.213          33.000  
G 9  18625782.902    97879181.136        1039.698          42.000  
G 3  19995412.565   105076717.199       -2255.820          29.000  
G 6  19373364.539   101807757.160        1334.647          47.000  
G19  21644963.447   113745063.247       -2717.195          33.000  
G17  22141309.047   116353328.262       -2826.776          42.000  
G 7  21999511.500   115608260.315        3333.258          31.000  
R 5  17820727.341    95261974.195        -228.490          45.000  
R20  18884028.026   100981358.623       -2825.310          42.000  
R21  19297204.085                        1547.970          24.000  
> 2019  9 17 15 25 19.9940000  0 10                     
G23  19030212.325   100004396.354       -1075.372          34.000  
G 9  18625585.462    97878141.810        1039.091          42.000  
G 3  19995834.589   105078973.373       -2256.182          28.000  
G 6  19373110.927   101806422.784        1334.109          47.000  
G19  21645480.541   113747781.091       -2718.074          33.000  
G17  22141847.072   116356155.050       -2826.801          42.000  
G 7  21998872.840   115604926.608        3333.294          31.000  
R 5  17820769.989    95262202.761        -228.798          45.000  
R20  18884556.262   100984184.401       -2826.149          42.000  
R21  19296913.391                        1549.523          25.000  
> 2019  9 17 15 25 20.9940000  0 10                     
G23  19030415.873   100005471.658       -1075.435          30.000  
G 9  18625387.699    97877102.896        1038.789          38.000  
G 3  19996264.921   105081229.800       -2256.665          27.000  
G 6  19372857.148   101805088.933        1333.409          43.000  
G19  21645997.652   113750499.245       -2718.857          29.000  
G17  22142385.045   116358982.003       -2827.539          38.000  
G 7  21998239.894   115601592.917        3333.514          28.000  
R 5  17820812.925    95262431.628        -229.298          40.000  
R20  18885085.143   100987010.819       -2826.863          36.000  
R21  19296620.568                        1543.246          21.000  
> 2019  9 17 15 25 21.9940000  0 10                     
G23  19030620.590   100006547.826       -1076.581          31.000  
G 9  18625190.433    97876064.961        1037.684          40.000  
G 3  19996694.388   105083486.958       -2258.076          26.000  
G 6  19372603.405   101803756.189        1332.236          44.000  
G19  21646510.069   113753218.271       -2718.920          30.000  
G17  22142923.445   116361809.645       -2827.868          39.000  
G 7  21997605.806   115598259.942        3332.812          28.000  
R 5  17820855.835    95262661.326        -229.934          42.000  
R20  18885613.998   100989838.455       -2828.071          39.000  
R21  19296331.191                        1542.912          20.000  
> 2019  9 17 15 25 22.9940000  0 10                     
G23  19030823.867   100007624.429       -1076.508          31.000  
G 9  18624993.498    97875027.587        1036.743          40.000  
G 3  19997121.857                       -2254.089          26.000  
G 6  19372349.879   101802424.087        1331.758          44.000  
G19  21647031.533   113755937.783       -2719.350          31.000  
G17  22143461.514   116364637.549       -2828.088          39.000  
G 7  21996974.649   115594927.149        3333.111          28.000  
R 5  17820899.216    95262891.465        -230.467          42.000  
R20  18886143.054   100992666.902       -2828.891          39.000  
R21  19296043.445                        1546.074          19.000  
> 2019  9 17 15 25 23.9940000  0 10                     
G23  19031029.038   100008701.098       -1077.301          30.000  
G 9  18624796.555    97873990.362        1036.919          40.000  
G 3  19997553.157                       -2257.449          26.000  
G 6  19372096.511   101801092.278        1331.575          44.000  
G19  21647547.981   113758657.288       -2718.729          30.000  
G17  22143999.696   116367465.377       -2828.156          39.000  
G 7  21996339.688   115591594.125        3333.179          28.000  
R 5  17820942.484    95263121.645        -230.543          42.000  
R20  18886672.223   100995495.779       -2829.384          39.000  
R21  19295756.119                        1539.369          20.000  
> 2019  9 17 15 25 24.9940000  0 10                     
G23  19031231.173   100009778.194       -1077.393          31.000  
G 9  18624600.100    97872953.697        1036.562          40.000  
G 3  19997983.217                       -2256.984          25.000  
G 6  19371843.465   101799761.144        1330.763          44.000  
G19  21648067.823   113761377.331       -2719.772          31.000  
G17  22144537.878   116370293.477       -2828.400          39.000  
G 7  21995701.080   115588261.387        3332.648          28.000  
R 5  17820985.735    95263352.303        -231.112          42.000  
R20  18887201.584   100998325.481       -2830.615          39.000  
R21  19295467.815                        1543.205          21.000  
> 2019  9 17 15 25 25.9940000  0 10                     
G23  19031439.869   100010855.590       -1077.209          30.000  
G 9  18624403.236    97871917.456        1036.217          41.000  
G 3  19998412.353                       -2257.729          25.000  
G 6  19371590.158   101798430.551        1330.520          44.000  
G19  21648581.846   113764097.699       -2720.542          30.000  
G17  22145076.182   116373121.712       -2828.033          39.000  
G 7  21995065.996   115584928.680        3332.416          28.000  
R 5  17821029.255    95263583.300        -231.183          42.000  
R20  18887731.146   101001155.844       -2830.835          39.000  
R21  19295179.031                        1542.831          21.000  
> 2019  9 17 15 25 26.9940000  0 10                     
G23  19031642.745   100011933.092       -1077.460          30.000  
G 9  18624206.502    97870881.378        1036.279          41.000  
G 3  19998842.981                       -2258.328          25.000  
G 6  19371336.955   101797100.225        1330.351          44.000  
G19  21649101.382   113766818.044       -2719.031          30.000  
G17  22145614.312   116375949.873       -2828.210          39.000  
G 7  21994430.913   115581595.783        3332.892          28.000  
R 5  17821072.907    95263814.309        -230.616          42.000  
R20  18888260.542   101003986.626       -2830.719          39.000  
R21  19294890.108                        1546.157          21.000  
> 2019  9 17 15 25 27.9940000  0 10                     
G23  19031844.827   100013010.117       -1076.630          30.000  
G 9  18624009.934    97869844.975        1036.550          41.000  
G 3  19999271.584                       -2257.059          25.000  
G 6  19371083.831   101795769.706        1330.346          44.000  
G19  21649619.069   113769538.094       -2720.346          30.000  
G17  22146152.041   116378777.411       -2827.673          39.000  
G 7  21993797.252   115578262.180        3333.893          28.000  
R 5  17821116.402    95264044.864        -230.754          42.000  
R20  18888790.033   101006817.301       -2830.377          39.000  
R21  19294600.914                        1543.520          22.000  
> 2019  9 17 15 25 28.9940000  0 10                     
G23  19032048.498   100014087.572       -1077.779          30.000  
G 9  18623813.043    97868809.082        1035.384          41.000  
G 3  19999701.095                       -2257.782          25.000  
G 6  19370830.951   101794439.805        1329.228          44.000  
G19  21650133.659   113772258.503       -2721.655          30.000  
G17  22146689.891   116381605.192       -2828.387          39.000  
G 7  21993165.441   115574928.773        3332.947          29.000  
R 5  17821159.739    95264275.791        -231.622          42.000  
R20  18889319.395   101009648.770       -2832.141          39.000  
R21  19294314.042                        1542.683          22.000  
> 2019  9 17 15 25 29.9940000  0 10                     
G23  19032257.272   100015165.549       -1078.155          30.000  
G 9  18623616.423    97867773.870        1034.891          41.000  
G 3  20000130.388                       -2257.415          24.000  
G 6  19370577.801   101793110.667        1329.003          44.000  
G19  21650650.656   113774979.420       -2720.910          30.000  
G17  22147228.012   116384433.350       -2828.283          39.000  
G 7  21992529.834   115571595.647        3333.221          29.000  
R 5  17821203.435    95264507.255        -231.600          43.000  
R20  18889849.227   101012481.107       -2832.898          39.000  
R21  19294028.774                        1543.508          23.000  
> 2019  9 17 15 25 30.9940000  0 10                     
G23  19032460.000   100016243.944       -1078.918          30.000  
G 9  18623419.855    97866739.146        1034.172          41.000  
G 3  20000561.234                       -2260.327          24.000  
G 6  19370325.017   101791782.168        1328.014          44.000  
G19  21651174.119   113777700.821       -2722.589          30.000  
G17  22147766.317   116387261.722       -2828.546          39.000  
G 7  21991898.634   115568262.696        3332.855          29.000  
R 5  17821246.860    95264739.145        -232.216          43.000  
R20  18890379.487   101015314.196       -2833.325          39.000  
R21  19293742.800                        1545.402          23.000  
> 2019  9 17 15 25 31.9940000  0 10                     
G23  19032667.788   100017322.574       -1078.911          30.000  
G 9  18623223.278    97865704.768        1034.251          41.000  
G 3  20000990.771                       -2257.571          24.000  
G 6  19370072.224   101790454.129        1327.908          44.000  
G19  21651686.405   113780422.409       -2722.314          30.000  
G17  22148304.612   116390090.195       -2828.192          39.000  
G 7  21991260.872   115564929.712        3333.514          29.000  
R 5  17821290.686    95264971.309        -232.067          43.000  
R20  18890909.380   101018147.891       -2833.600          39.000  
R21  19293455.534                        1541.512          23.000  
> 2019  9 17 15 25 32.9940000  0 10                     
G23  19032873.954   100018401.232       -1078.721          30.000  
G 9  18623026.771    97864670.537        1033.915          41.000  
G 3  20001421.556                       -2260.396          24.000  
G 6  19369819.580   101789126.375        1327.119          44.000  
G19  21652206.265   113783144.040       -2721.300          30.000  
G17  22148842.978   116392918.562       -2828.717          39.000  
G 7  21990626.408   115561596.660        3332.104          29.000  
R 5  17821334.242    95265203.504        -232.374          43.000  
R20  18891439.282   101020981.978       -2834.479          39.000  
R21  19293169.229                        1541.653          24.000  
> 2019  9 17 15 25 33.9940000  0 10                     
G23  19033081.062   100019479.928       -1078.669          30.000  
G 9  18622830.421    97863636.415        1034.062          42.000  
G 3  20001854.243                       -2257.972          25.000  
G 6  19369567.128   101787798.813        1327.334          45.000  
G19  21652723.114   113785865.752       -2721.840          30.000  
G17  22149381.029   116395746.720       -2827.911          39.000  
G 7  21989996.289   115558263.134        3334.204          29.000  
R 5  17821377.797    95265435.686        -232.072          43.000  
R20  18891969.044   101023816.398       -2834.552          39.000  
R21  19292882.591                        1534.391          24.000  
> 2019  9 17 15 25 34.9940000  0 10                     
G23  19033284.418   100020558.278       -1078.089          30.000  
G 9  18622634.011    97862602.093        1034.342          42.000  
G 3  20002285.516                       -2257.390          24.000  
G 6  19369314.667   101786471.179        1327.792          45.000  
G19  21653242.502   113788587.127       -2720.765          30.000  
G17  22149918.958   116398574.437       -2827.319          40.000  
G 7  21989360.054   115554929.268        3334.198          29.000  
R 5  17821421.109    95265667.511        -231.511          43.000  
R20  18892499.199   101026650.851       -2834.424          39.000  
R21  19292594.768                        1532.234          24.000  
> 2019  9 17 15 25 35.9940000  0 10                     
G23  19033492.791   100021636.088       -1077.838          29.000  
G 9  18622437.146    97861567.322        1035.059          42.000  
G 3  20002716.982                       -2254.880          25.000  
G 6  19369062.075   101785143.225        1328.063          44.000  
G19  21653760.573   113791307.919       -2719.524          30.000  
G17  22150456.957   116401401.445       -2826.758          39.000  
G 7  21988724.544   115551594.532        3335.162          28.000  
R 5  17821464.577    95265898.760        -230.893          43.000  
R20  18893029.538   101029485.090       -2833.887          39.000  
R21  19292307.362                        1543.005          24.000  
> 2019  9 17 15 25 36.9940000  0 10                     
G23  19033691.174   100022713.165       -1077.095          29.000  
G 9  18622240.648    97860531.948        1035.010          42.000  
G 3  20003145.829                       -2258.366          24.000  
G 6  19368809.108   101783814.764        1328.207          44.000  
G19  21654279.822   113794028.067       -2720.489          30.000  
G17  22150994.616   116404227.519       -2825.934          39.000  
G 7  21988090.045   115548258.818        3335.791          28.000  
R 5  17821508.063    95266129.265        -230.540          43.000  
R20  18893559.475   101032318.945       -2834.198          39.000  
R21  19292022.104                        1535.903          25.000  
> 2019  9 17 15 25 37.9940000  0 10                     
G23  19033899.983   100023790.472       -1077.995          29.000  
G 9  18622043.713    97859496.931        1034.287          42.000  
G 3  20003576.030                       -2258.016          24.000  
G 6  19368556.333   101782486.790        1327.131          44.000  
G19  21654798.390   113796748.506       -2721.532          30.000  
G17  22151532.588   116407053.743       -2827.356          40.000  
G 7  21987456.366   115544923.147        3334.955          28.000  
R 5  17821551.418    95266360.043        -231.290          43.000  
R20  18894089.743   101035153.423       -2835.260          39.000  
R21  19291737.342                        1536.848          25.000  
> 2019  9 17 15 25 38.9940000  0 10                     
G23  19034098.645   100024868.618       -1078.156          29.000  
G 9  18621847.163    97858462.879        1033.770          42.000  
G 3  20004005.104                       -2256.907          25.000  
G 6  19368303.767   101781159.886        1326.523          44.000  
G19  21655316.522   113799469.797       -2721.922          30.000  
G17  22152070.832   116409880.605       -2827.002          40.000  
G 7  21986819.783   115541588.114        3334.259          29.000  
R 5  17821595.140    95266591.684        -232.015          43.000  
R20  18894620.029   101037989.128       -2836.334          39.000  
R21  19291450.461                        1535.760          25.000  
> 2019  9 17 15 25 39.9940000  0 10                     
G23  19034303.772   100025946.939       -1078.353          28.000  
G 9  18621650.682    97857429.031        1034.158          42.000  
G 3  20004435.749                       -2258.055          24.000  
G 6  19368051.070   101779833.313        1326.675          45.000  
G19  21655829.724   113802191.123       -2721.503          30.000  
G17  22152608.578   116412707.427       -2826.672          40.000  
G 7  21986186.497   115538252.900        3335.248          29.000  
R 5  17821638.617    95266823.375        -231.334          43.000  
R20  18895150.481   101040825.237       -2835.980          39.000  
R21  19291165.202                        1536.166          25.000  
> 2019  9 17 15 25 40.9940000  0 10                     
G23  19034507.792   100027025.062       -1078.694          29.000  
G 9  18621454.280    97856395.117        1033.319          42.000  
G 3  20004866.081                       -2258.715          25.000  
G 6  19367798.801   101778506.768        1325.956          45.000  
G19  21656349.025   113804912.287       -2721.421          31.000  
G17  22153146.524   116415533.879       -2826.685          40.000  
G 7  21985549.730   115534917.192        3335.821          28.000  
R 5  17821682.243    95267054.872        -231.765          43.000  
R20  18895680.714   101043661.493       -2836.493          39.000  
R21  19290877.928                        1536.015          25.000  
> 2019  9 17 15 25 41.9940000  0 10                     
G23  19034712.902   100028103.347       -1078.267          29.000  
G 9  18621257.869    97855361.554        1033.257          42.000  
G 3  20005294.745                       -2257.435          24.000  
G 6  19367546.340   101777180.721        1325.678          45.000  
G19  21656872.409   113807633.758       -2722.334          31.000  
G17  22153684.384   116418360.415       -2826.599          40.000  
G 7  21984915.885   115531581.618        3335.248          29.000  
R 5  17821725.763    95267286.625        -231.955          43.000  
R20  18896211.122   101046498.361       -2837.079          38.000  
R21  19290590.479                        1533.233          25.000  
