     2.11           OBSERVATION DATA    M (MIXED)           RINEX VERSION / TYPE
CONVBIN 2.4.2                           20190709 154017 UTC PGM / RUN BY / DATE 
log: ./output_ubx/raw_obs_9-7-2019_17:39.ubx                COMMENT             
format: u-blox                                              COMMENT             
                                                            MARKER NAME         
                                                            MARKER NUMBER       
                                                            OBSERVER / AGENCY   
                                                            REC # / TYPE / VERS 
                                                            ANT # / TYPE        
  4508517.6435   708389.6202  4440689.3061                  APPROX POSITION XYZ 
        0.0000        0.0000        0.0000                  ANTENNA: DELTA H/E/N
     1     1                                                WAVELENGTH FACT L1/2
     4    C1    L1    C2    L2                              # / TYPES OF OBSERV 
  2019     7     9    15    39   34.0060000     GPS         TIME OF FIRST OBS   
  2019     7     9    15    40   35.0060000     GPS         TIME OF LAST OBS    
                                                            END OF HEADER       
 19  7  9 15 39 34.0060000  0  9G 8G14G 1G32G11G18G 3G28G22
  22381387.450   117614730.159                                  
  23963053.766   125926662.466                                  
  22892174.396   120299098.554                                  
  23673432.214   124404646.269                                  
  22248771.641   116918089.195                                  
  21643700.357   113738414.574                                  
  24819539.908   130427572.463                                  
  25608671.255                                                  
  23468431.715   123327463.771                                  
 19  7  9 15 39 35.0060000  0  9G 8G14G 1G32G11G18G 3G28G22
  22381666.688   117616199.466                                  
  23962765.933   125925146.669                                  
  22891816.178   120297216.827                                  
  23673392.506   124404434.717                                  
  22248428.796   116916287.281                                  
  21643584.880   113737807.701                                  
  24818931.271   130424374.921                                  
  25608492.495                                                  
  23468019.881   123325300.853                                  
 19  7  9 15 39 36.0060000  0  9G 8G14G 1G32G11G18G 3G28G22
  22381946.127   117617669.491                                  
  23962478.345   125923631.643                                  
  22891458.108   120295335.551                                  
  23673349.587   124404223.908                                  
  22248086.048   116914485.962                                  
  21643469.804   113737201.416                                  
  24818322.939   130421177.788                                  
  25608311.746                                                  
  23467608.265   123323138.479                                  
 19  7  9 15 39 37.0060000  0  9G 8G14G 1G32G11G18G 3G28G22
  22382226.151   117619140.403                                  
  23962190.442   125922117.363                                  
  22891100.222   120293454.807                                  
  23673309.574                                                  
  22247743.413   116912685.367                                  
  21643354.415   113736595.862                                  
  24817714.328   130417981.179                                  
  25608132.044                                                  
  23467196.973   123320976.765                                  
 19  7  9 15 39 38.0060000  0  9G 8G14G 1G32G11G18G 3G28G22
  22382506.279   117620611.911                                  
  23961902.505   125920603.645                                  
  22890742.562   120291574.429                                  
  23673269.787                                                  
  22247400.909   116910885.280                                  
  21643239.112   113735990.794                                  
  24817105.987   130414784.885                                  
  25607950.675                                                  
  23466785.627   123318815.478                                  
 19  7  9 15 39 39.0060000  0  9G 8G14G 1G32G11G18G 3G28G22
  22382786.381   117622083.984                                  
  23961614.760   125919090.477                                  
  22890384.876   120289694.318                                  
  23673226.362                                                  
  22247058.405   116909085.605                                  
  21643124.116   113735386.140                                  
  24816497.637   130411588.819                                  
  25607771.452                                                  
  23466374.378   123316654.551                                  
 19  7  9 15 39 40.0060000  0  9G 8G14G 1G32G11G18G 3G28G22
  22383066.754   117623556.702                                  
  23961327.206   125917577.842                                  
  22890027.365   120287814.489                                  
  23673184.552                                                  
  22246715.770   116907286.436                                  
  21643009.092   113734781.967                                  
  24815889.567   130408393.066                                  
  25607589.089                                                  
  23465963.242   123314494.073                                  
 19  7  9 15 39 41.0060000  0  9G 8G14G 1G32G11G18G 3G28G22
  22383347.284   117625029.904                                  
  23961039.731   125916065.667                                  
  22889669.452   120285934.918                                  
  23673144.564                                                  
  22246373.518   116905487.645                                  
  21642894.183   113734178.173                                  
  24815281.540   130405197.473                                  
  25607404.954                                                  
  23465551.958   123312333.891                                  
 19  7  9 15 39 42.0060000  0  8G 8G14G 1G11G18G 3G28G22
  22383627.813   117626503.628                                  
  23960751.934   125914554.013                                  
  22889312.107   120284055.546                                  
  22246031.459   116903689.244                                  
  21642779.325   113733574.741                                  
  24814673.287   130402002.103                                  
  25607223.655                                                  
  23465141.014   123310174.035                                  
 19  7  9 15 39 43.0060000  0  8G 8G14G 1G11G18G 3G28G22
  22383908.308   117627978.014                                  
  23960464.764   125913042.928                                  
  22888954.761   120282176.568                                  
  22245689.348   116901891.372                                  
  21642664.677   113732971.830                                  
  24814065.173   130398807.052                                  
  25607043.185                                                  
  23464730.541   123308014.656                                  
 19  7  9 15 39 44.0060000  0  8G 8G14G 1G11G18G 3G28G22
  22384189.152   117629452.847                                  
  23960177.237   125911532.223                                  
  22888597.293   120280297.723                                  
  22245347.105   116900093.825                                  
  21642549.899   113732369.232                                  
  24813457.347   130395612.130                                  
  25606861.310                                                  
  23464319.589   123305855.544                                  
 19  7  9 15 39 45.0060000  0  8G 8G14G 1G11G18G 3G28G22
  22384470.170   117630928.195                                  
  23959889.840   125910022.017                                  
  22888239.852   120278419.100                                  
  22245005.229   116898296.650                                  
  21642435.547   113731767.002                                  
  24812849.216   130392417.401                                  
  25606680.735                                                  
  23463908.444   123303696.741                                  
 19  7  9 15 39 46.0060000  0  8G 8G14G 1G11G18G 3G28G22
  22384751.285   117632404.343                                  
  23959602.819   125908512.541                                  
  22887882.498   120276540.968                                  
  22244663.284   116896500.151                                  
  21642320.952   113731165.425                                  
  24812241.407   130389223.151                                  
  25606498.712                                                  
  23463497.771   123301538.532                                  
 19  7  9 15 39 47.0060000  0  9G 8G14G 1G11G10G18G 3G28G22
  22385032.591   117633881.047                                  
  23959315.693   125907003.584                                  
  22887525.222   120274663.115                                  
  22244321.704   116894704.075                                  
  25237991.872                                                  
  21642206.662   113730564.253                                  
  24811633.738   130386029.111                                  
  25606318.992                                                  
  23463087.289   123299380.708                                  
 19  7  9 15 39 48.0060000  0  9G27G 8G14G 1G11G18G 3G28G22
  24492603.483                                                  
  22385313.854   117635358.558                                  
  23959028.751   125905495.331                                  
  22887168.094   120272785.752                                  
  22243980.047   116892908.670                                  
  21642092.677   113729963.750                                  
  24811025.956   130382835.565                                  
  25606136.777                                                  
  23462676.886   123297223.467                                  
 19  7  9 15 39 49.0060000  0  9G27G 8G14G 1G11G18G 3G28G22
  24493250.074                                                  
  22385595.317   117636836.679                                  
  23958742.026   125903987.720                                  
  22886811.133   120270908.723                                  
  22243638.703   116891113.772                                  
  21641978.395   113729363.748                                  
  24810418.147   130379642.324                                  
  25605956.368                                                  
  23462266.440   123295066.680                                  
 19  7  9 15 39 50.0060000  0  9G27G 8G14G 1G11G18G 3G28G22
  24493896.902   128716296.7892                                 
  22385876.990   117638315.390                                  
  23958455.590   125902480.600                                  
  22886453.988   120269032.022                                  
  22243297.420   116889319.341                                  
  21641864.149   113728764.199                                  
  24809810.740   130376449.372                                  
  25605773.952                                                  
  23461855.984   123292910.305                                  
 19  7  9 15 39 51.0060000  0  9G27G 8G14G 1G11G18G 3G28G22
  24494545.291   128719694.4942                                 
  22386158.950   117639794.427                                  
  23958170.270   125900973.835                                  
  22886096.974   120267155.332                                  
  22242955.911   116887525.119                                  
  21641750.103   113728164.820                                  
  24809203.176   130373256.394                                  
  25605594.320                                                  
  23461445.712   123290754.039                                  
 19  7  9 15 39 52.0060000  0  9G27G 8G14G 1G11G18G 3G28G22
  24495190.224   128723092.3372                                 
  22386440.858   117641274.012                                  
  23957881.390   125899467.492                                  
  22885739.759   120265278.897                                  
  22242614.471   116885731.289                                  
  21641636.057   113727565.844                                  
  24808595.664   130370063.653                                  
  25605414.085                                                  
  23461035.571   123288598.127                                  
 19  7  9 15 39 53.0060000  0  9G27G 8G14G 1G11G18G 3G28G22
  24495834.731   128726490.2972                                 
  22386723.081   117642753.940                                  
  23957599.081   125897961.426                                  
  22885382.684   120263402.486                                  
  22242273.101   116883937.694                                  
  21641522.229   113726967.086                                  
  24807988.405   130366870.931                                  
  25605233.851                                                  
  23460625.360   123286442.380                                  
 19  7  9 15 39 54.0060000  0  9G27G 8G14G 1G11G18G 3G28G22
  24496481.584   128729888.2682                                 
  22387005.094   117644234.233                                  
  23957312.600   125896455.706                                  
  22885025.757   120261526.187                                  
  22241931.854   116882144.343                                  
  21641408.436   113726368.572                                  
  24807380.640   130363678.260                                  
  25605054.201                                                  
  23460214.879   123284286.794                                  
 19  7  9 15 39 55.0060000  0  9G27G 8G14G 1G11G18G 3G28G22
  24497128.089   128733286.5532                                 
  22387287.587   117645715.084                                  
  23957025.221   125894950.522                                  
  22884668.647   120259650.107                                  
  22241590.466   116880351.401                                  
  21641294.923   113725770.470                                  
  24806772.875   130360485.832                                  
  25604872.683                                                  
  23459804.912   123282131.579                                  
 19  7  9 15 39 56.0060000  0  9G27G 8G14G 1G11G18G 3G28G22
  24497773.555   128736684.8602                                 
  22387569.739   117647196.265                                  
  23956736.621   125893445.574                                  
  22884311.677   120257774.107                                  
  22241249.210   116878558.673                                  
  21641181.130   113725172.545                                  
  24806165.311   130357293.400                                  
  25604691.053                                                  
  23459394.867   123279976.493                                  
 19  7  9 15 39 57.0060000  0  8G 8G14G 1G11G18G 3G28G22
  22387851.935   117648677.926                                  
  23956450.978   125891941.035                                  
  22883954.803   120255898.302                                  
  22240908.206   116876766.308                                  
  21641067.433   113724574.984                                  
  24805557.930   130354101.120                                  
  25604509.797                                                  
  23458984.743   123277821.702                                  
 19  7  9 15 39 58.0060000  0  8G 8G14G 1G11G18G 3G28G22
  22388134.097   117650160.150                                  
  23956164.551   125890437.112                                  
  22883597.762   120254022.727                                  
  22240567.194   116874974.359                                  
  21640953.841   113723977.818                                  
  24804950.226   130350909.074                                  
  25604330.139                                                  
  23458574.846   123275667.272                                  
 19  7  9 15 39 59.0060000  0 10G 8G14G 1G32G11G10G18G 3G28G22
  22388416.415   117651642.785                                  
  23955878.472   125888933.494                                  
  22883240.670   120252147.270                                  
  23672466.222                                                  
  22240226.147   116873182.699                                  
  25245331.494                                                  
  21640840.039   113723380.937                                  
  24804342.915   130347717.133                                  
  25604151.091                                                  
  23458165.045   123273513.054                                  
 19  7  9 15 40  0.0060000  0 10G 8G14G 1G32G11G10G18G 3G28G22
  22388698.995   117653125.959                                  
  23955590.622   125887430.313                                  
  22882883.813   120250272.058                                  
  23672432.395                                                  
  22239885.405   116871391.441                                  
  25245942.994                                                  
  21640726.438   113722784.453                                  
  24803735.804   130344525.405                                  
  25603973.700                                                  
  23457755.017   123271359.184                                  
 19  7  9 15 40  1.0060000  0  9G 8G14G 1G11G10G18G 3G28G22
  22388981.628   117654609.741                                  
  23955305.180   125885927.743                                  
  22882527.122   120248397.157                                  
  22239544.908   116869600.655                                  
  25246554.144                                                  
  21640613.108   113722188.430                                  
  24803128.589   130341333.947                                  
  25603794.635                                                  
  23457344.911   123269205.722                                  
 19  7  9 15 40  2.0060000  0 10G 8G14G 1G32G11G10G18G 3G28G22
  22389264.112   117656094.000                                  
  23955019.616   125884425.556                                  
  22882170.422   120246522.442                                  
  23672358.380                                                  
  22239204.341   116867810.223                                  
  25247166.289   132674752.2832                                 
  21640499.838   113721592.734                                  
  24802521.034   130338142.643                                  
  25603615.892                                                  
  23456935.285   123267052.549                                  
 19  7  9 15 40  3.0060000  0 10G 8G14G 1G32G11G10G18G 3G28G22
  22389546.605   117657578.838                                  
  23954734.654   125882923.840                                  
  22881813.521   120244647.964                                  
  23672319.274                                                  
  22238863.529   116866020.216                                  
  25247778.870   132677967.7702                                 
  21640386.499   113720997.462                                  
  24801913.993   130334951.578                                  
  25603436.775                                                  
  23456525.693   123264899.737                                  
 19  7  9 15 40  4.0060000  0 10G 8G14G 1G32G11G10G18G 3G28G22
  22389829.185   117659064.007                                  
  23954448.967   125881422.557                                  
  22881456.891   120242773.590                                  
  23672281.564   124398683.4693                                 
  22238523.015   116864230.455                                  
  25248390.622   132681183.2132                                 
  21640273.247   113720402.410                                  
  24801306.621   130331760.550                                  
  25603259.193                                                  
  23456116.128   123262747.097                                  
 19  7  9 15 40  5.0060000  0 10G 8G14G 1G32G11G10G18G 3G28G22
  22390112.105   117660549.795                                  
  23954163.482   125879921.834                                  
  22881100.078   120240899.502                                  
  23672245.957   124398490.6812                                 
  22238182.500   116862441.162                                  
  25249001.589                                                  
  21640160.248   113719807.810                                  
  24800699.379   130328569.791                                  
  25603079.473                                                  
  23455706.632   123260594.873                                  
 19  7  9 15 40  6.0060000  0 10G 8G14G 1G32G11G10G18G 3G28G22
  22390394.964   117662036.169                                  
  23953877.255   125878421.540                                  
  22880743.518   120239025.714                                  
  23672208.448   124398298.5822                                 
  22237842.124   116860652.331                                  
  25249614.589                                                  
  21640047.049   113719213.651                                  
  24800092.679   130325379.307                                  
  25602899.910                                                  
  23455297.372   123258443.031                                  
 19  7  9 15 40  7.0060000  0 10G 8G14G 1G32G11G10G18G 3G28G22
  22390677.824   117663522.967                                  
  23953590.312   125876921.651                                  
  22880386.853   120237152.062                                  
  23672173.643   124398106.9552                                 
  22237501.863   116858863.810                                  
  25250227.153   132690830.1872                                 
  21639933.684   113718619.785                                  
  24799485.743   130322188.933                                  
  25602720.129                                                  
  23454888.034   123256291.424                                  
 19  7  9 15 40  8.0060000  0 10G 8G14G 1G32G11G10G18G 3G28G22
  22390960.709   117665010.253                                  
  23953307.234   125875422.266                                  
  22880030.135   120235278.608                                  
  23672135.898   124397915.8472                                 
  22237161.426   116857075.642                                  
  25250836.401   132694045.9162                                 
  21639820.859   113718026.278                                  
  24798878.545   130318998.730                                  
  25602540.671                                                  
  23454478.599   123254140.125                                  
 19  7  9 15 40  9.0060000  0 10G 8G14G 1G32G11G10G18G 3G28G22
  22391243.629   117666498.207                                  
  23953023.250   125873923.406                                  
  22879673.462   120233405.545                                  
  23672099.637   124397725.5652                                 
  22236821.496   116855288.027                                  
  25251449.349   132697261.9232                                 
  21639708.009   113717433.321                                  
  24798271.478   130315808.881                                  
  25602362.199                                                  
  23454069.200   123251989.308                                  
 19  7  9 15 40 10.0060000  0 10G 8G14G 1G32G11G10G18G 3G28G22
  22391526.611   117667986.455                                  
  23952733.436   125872424.899                                  
  22879317.032   120231532.476                                  
  23672062.756   124397535.6672                                 
  22236481.287   116853500.582                                  
  25252062.026   132700477.7302                                 
  21639595.237   113716840.489                                  
  24797664.298   130312619.001                                  
  25602181.598                                                  
  23453659.670   123249838.574                                  
 19  7  9 15 40 11.0060000  0 10G 8G14G 1G32G11G10G18G 3G28G22
  22391809.706   117669475.258                                  
  23952447.619   125870926.797                                  
  22878960.629   120229659.631                                  
  23672026.224   124397346.3252                                 
  22236141.252   116851713.536                                  
  25252677.024   132703693.7062                                 
  21639482.499   113716248.061                                  
  24797057.597   130309429.341                                  
  25602004.243                                                  
  23453250.523   123247688.205                                  
 19  7  9 15 40 12.0060000  0 10G 8G14G 1G32G11G10G18G 3G28G22
  22392092.609   117670964.529                                  
  23952166.784   125869429.163                                  
  22878604.514   120227787.006                                  
  23671988.409   124397157.6442                                 
  22235801.374   116849926.862                                  
  25253289.230   132706909.6792                                 
  21639369.884   113715655.996                                  
  24796450.784   130306239.831                                  
  25601826.329                                                  
  23452841.342   123245538.112                                  
 19  7  9 15 40 13.0060000  0 10G 8G14G 1G32G11G10G18G 3G28G22
  22392376.236   117672454.240                                  
  23951879.728   125867931.931                                  
  22878248.163   120225914.548                                  
  23671951.990   124396968.8721                                 
  22235461.269   116848140.491                                  
  25253900.947                                                  
  21639257.217   113715064.243                                  
  24795843.821   130303050.464                                  
  25601646.854                                                  
  23452432.474   123243388.300                                  
 19  7  9 15 40 14.0060000  0 10G 8G14G 1G32G11G10G18G 3G28G22
  22392659.924   117673944.694                                  
  23951596.406   125866435.484                                  
  22877891.986   120224042.496                                  
  23671916.593   124396781.482                                  
  22235121.601   116846354.758                                  
  25254511.757                                                  
  21639144.611   113714473.088                                  
  24795237.042   130299861.512                                  
  25601467.718                                                  
  23452023.188   123241238.998                                  
 19  7  9 15 40 15.0060000  0 10G 8G14G 1G32G11G10G18G 3G28G22
  22392943.499   117675435.560                                  
  23951310.615   125864939.283                                  
  22877535.792   120222170.572                                  
  23671878.656   124396594.529                                  
  22234781.950   116844569.305                                  
  25255123.510   132716571.1303                                 
  21639032.240   113713882.197                                  
  24794630.228   130296672.650                                  
  25601288.705                                                  
  23451614.295   123239089.938                                  
 19  7  9 15 40 16.0060000  0 10G 8G14G 1G32G11G10G18G 3G28G22
  22393227.841   117676926.957                                  
  23951025.985   125863443.577                                  
  22877179.712   120220298.867                                  
  23671842.674   124396408.241                                  
  22234441.941   116842784.235                                  
  25255736.196   132719787.5032                                 
  21638919.835   113713291.702                                  
  24794023.528   130293483.986                                  
  25601107.790                                                  
  23451205.523   123236941.188                                  
 19  7  9 15 40 17.0060000  0 10G 8G14G 1G32G11G10G18G 3G28G22
  22393511.975   117678419.059                                  
  23950744.181   125861948.580                                  
  22876823.283   120218427.574                                  
  23671806.037   124396222.709                                  
  22234102.482   116840999.749                                  
  25256348.367   132723003.9872                                 
  21638807.822   113712701.750                                  
  24793417.150   130290295.689                                  
  25600928.070                                                  
  23450796.822   123234792.954                                  
 19  7  9 15 40 18.0060000  0 10G 8G14G 1G32G11G10G18G 3G28G22
  22393796.378   117679911.516                                  
  23950457.064   125860453.777                                  
  22876467.176   120216556.357                                  
  23671770.465   124396037.573                                  
  22233763.005   116839215.493                                  
  25256960.529   132726220.5092                                 
  21638695.617   113712112.028                                  
  24792810.398   130287107.443                                  
  25600750.148                                                  
  23450387.902   123232644.891                                  
 19  7  9 15 40 19.0060000  0 10G 8G14G 1G32G11G10G18G 3G28G22
  22394080.956   117681404.467                                  
  23950173.202   125858959.557                                  
  22876111.244   120214685.363                                  
  23671734.910   124395853.070                                  
  22233423.747   116837431.603                                  
  25257570.842   132729437.0292                                 
  21638583.455   113711522.651                                  
  24792203.610   130283919.357                                  
  25600570.847                                                  
  23449979.070   123230497.113                                  
 19  7  9 15 40 20.0060000  0 10G 8G14G 1G32G11G10G18G 3G28G22
  22394365.805   117682898.138                                  
  23949882.333   125857465.933                                  
  22875754.762   120212814.755                                  
  23671701.876   124395669.339                                  
  22233084.349   116835648.320                                  
  25258181.817   132732653.8762                                 
  21638471.373   113710933.849                                  
  24791597.189   130280731.684                                  
  25600393.335                                                  
  23449570.202   123228349.888                                  
 19  7  9 15 40 21.0060000  0 10G 8G14G 1G32G11G10G18G 3G28G22
  22394650.819   117684392.139                                  
  23949603.958   125855972.626                                  
  22875399.013   120210944.231                                  
  23671668.424   124395486.017                                  
  22232744.837   116833865.244                                  
  25258793.290   132735870.5732                                 
  21638359.508   113710345.267                                  
  24790990.584   130277544.040                                  
  25600215.194                                                  
  23449161.832   123226202.819                                  
 19  7  9 15 40 22.0060000  0 11G27G 8G14G 1G32G11G10G18G 3G28G22
  24514599.151   128825087.1503                                 
  22394935.895   117685886.644                                  
  23949323.847   125854479.822                                  
  22875042.872   120209073.911                                  
  23671635.313   124395303.342                                  
  22232405.544   116832082.563                                  
  25259405.540   132739087.3662                                 
  21638247.713   113709757.062                                  
  24790383.674   130274356.586                                  
  25600034.192                                                  
  23448753.436   123224056.069                                  
 19  7  9 15 40 23.0060000  0 11G27G 8G14G 1G32G11G10G18G 3G28G22
  24515248.543   128828491.4552                                 
  22395221.031   117687381.764                                  
  23949038.004   125852987.528                                  
  22874687.062   120207203.898                                  
  23671601.843   124395121.332                                  
  22232066.382   116830300.351                                  
  25260016.481   132742304.3132                                 
  21638135.718   113709169.303                                  
  24789777.698   130271169.421                                  
  25599856.505                                                  
  23448344.944   123221909.724                                  
 19  7  9 15 40 24.0060000  0 11G27G 8G14G 1G32G11G10G18G 3G28G22
  24515894.855   128831895.9852                                 
  22395506.098   117688877.344                                  
  23948752.501   125851495.606                                  
  22874331.051   120205334.062                                  
  23671565.992   124394939.814                                  
  22231727.341   116828518.478                                  
  25260630.406   132745521.2722                                 
  21638023.949   113708581.873                                  
  24789171.399   130267982.382                                  
  25599679.385                                                  
  23447936.382   123219763.650                                  
 19  7  9 15 40 25.0060000  0 11G27G 8G14G 1G32G11G10G18G 3G28G22
  24516542.852   128835300.740                                  
  22395791.104   117690373.453                                  
  23948469.205   125850004.286                                  
  22873975.137   120203464.493                                  
  23671533.473   124394758.949                                  
  22231388.275   116826737.021                                  
  25261244.592   132748737.9291                                 
  21637912.180   113707994.862                                  
  24788564.969   130264795.579                                  
  25599501.873                                                  
  23447528.378   123217617.942                                  
 19  7  9 15 40 26.0060000  0 10G 8G14G 1G32G11G10G18G 3G28G22
  22396076.293   117691870.022                                  
  23948183.205   125848513.281                                  
  22873619.266   120201595.052                                  
  23671500.230   124394578.580                                  
  22231049.488   116824955.881                                  
  25261858.290   132751954.947                                  
  21637800.229   113707408.145                                  
  24787958.557   130261608.901                                  
  25599324.805                                                  
  23447120.000   123215472.448                                  
 19  7  9 15 40 27.0060000  0 11G27G 8G14G 1G32G11G10G18G 3G28G22
  24517837.894   128842107.5961                                 
  22396361.464   117693367.023                                  
  23947899.560   125847022.678                                  
  22873263.403   120199725.786                                  
  23671469.187   124394398.788                                  
  22230710.761   116823175.082                                  
  25262469.257   132755171.937                                  
  21637688.730   113706821.761                                  
  24787351.900   130258422.354                                  
  25599145.967                                                  
  23446711.700   123213327.246                                  
 19  7  9 15 40 28.0060000  0 11G27G 8G14G 1G32G11G10G18G 3G28G22
  24518485.314   128845512.827                                  
  22396647.089   117694864.543                                  
  23947613.560   125845532.632                                  
  22872907.619   120197856.734                                  
  23671438.073   124394219.534                                  
  22230372.088   116821394.669                                  
  25263077.746   132758389.174                                  
  21637577.424   113706235.738                                  
  24786745.592   130255236.003                                  
  25598969.179                                                  
  23446303.426   123211182.357                                  
 19  7  9 15 40 29.0060000  0 10G 8G14G 1G32G11G10G18G 3G28G22
  22396932.994   117696362.593                                  
  23947330.936   125844042.958                                  
  22872551.495   120195987.903                                  
  23671398.775   124394040.983                                  
  22230033.143   116819614.652                                  
  25263690.057                                                  
  21637465.970   113705650.108                                  
  24786139.511   130252049.843                                  
  25598794.188                                                  
  23445895.352   123209037.810                                  
 19  7  9 15 40 30.0060000  0 10G 8G14G 1G32G11G10G18G 3G28G22
  22397219.046   117697861.110                                  
  23947051.078   125842553.740                                  
  22872195.624   120194119.243                                  
  23671368.656   124393862.900                                  
  22229694.592   116817834.979                                  
  25264301.268                                                  
  21637354.663   113705064.816                                  
  24785533.360   130248863.837                                  
  25598617.627                                                  
  23445487.375   123206893.522                                  
 19  7  9 15 40 31.0060000  0  9G 8G14G 1G32G11G18G 3G28G22
  22397505.361   117699360.415                                  
  23946762.670   125841065.282                                  
  22871839.858   120192251.101                                  
  23671331.801   124393685.672                                  
  22229355.874   116816055.934                                  
  21637243.296   113704480.144                                  
  24784927.148   130245678.293                                  
  25598439.373                                                  
  23445079.371   123204749.810                                  
 19  7  9 15 40 32.0060000  0 10G 8G14G 1G32G11G10G18G 3G28G22
  22397791.684   117700860.093                                  
  23946481.468   125839577.093                                  
  22871484.319   120190383.014                                  
  23671294.606   124393508.899                                  
  22229017.305   116814277.172                                  
  25265527.469   132771242.1923                                 
  21637131.955   113703895.701                                  
  24784321.172   130242492.790                                  
  25598261.503                                                  
  23444671.429   123202606.298                                  
 19  7  9 15 40 33.0060000  0 10G 8G14G 1G32G11G10G18G 3G28G22
  22398078.068   117702360.319                                  
  23946198.775   125838089.461                                  
  22871128.474   120188515.185                                  
  23671265.010   124393332.732                                  
  22228678.823   116812498.833                                  
  25266137.625   132774459.8202                                 
  21637020.631   113703311.682                                  
  24783715.004   130239307.528                                  
  25598085.988                                                  
  23444263.591   123200463.145                                  
 19  7  9 15 40 34.0060000  0 10G 8G14G 1G32G11G10G18G 3G28G22
  22398364.392   117703861.105                                  
  23945917.503   125836602.345                                  
  22870772.882   120186647.622                                  
  23671233.600   124393157.255                                  
  22228340.525   116810720.922                                  
  25266753.137   132777677.5492                                 
  21636909.700   113702728.088                                  
  24783108.670   130236122.496                                  
  25597912.690                                                  
  23443855.675   123198320.364                                  
 19  7  9 15 40 35.0060000  0 10G 8G14G 1G32G11G10G18G 3G28G22
  22398650.558   117705362.279                                  
  23945631.390   125835115.532                                  
  22870417.639   120184780.162                                  
  23671195.044   124392982.303                                  
  22228002.174   116808943.294                                  
  25267365.928   132780895.2242                                 
  21636798.822   113702144.749                                  
  24782502.711   130232937.564                                  
  25597737.839                                                  
  23443448.474   123196177.798                                  
