     3.02           OBSERVATION DATA    M: Mixed            RINEX VERSION / TYPE
CONVBIN 2.4.2                           20190916 152009 UTC PGM / RUN BY / DATE 
log: ./output_ubx/raw_obs_test_lollo_16-9-2019_17:18.ubx    COMMENT             
format: u-blox                                              COMMENT             
                                                            MARKER NAME         
                                                            MARKER NUMBER       
                                                            MARKER TYPE         
                                                            OBSERVER / AGENCY   
                                                            REC # / TYPE / VERS 
                                                            ANT # / TYPE        
        0.0000        0.0000        0.0000                  APPROX POSITION XYZ 
        0.0000        0.0000        0.0000                  ANTENNA: DELTA H/E/N
G    2 C1C L1C                                              SYS / # / OBS TYPES 
R    2 C1C L1C                                              SYS / # / OBS TYPES 
E    2 C1C L1C                                              SYS / # / OBS TYPES 
J    2 C1C L1C                                              SYS / # / OBS TYPES 
S    2 C1C L1C                                              SYS / # / OBS TYPES 
C    2 C1I L1I                                              SYS / # / OBS TYPES 
  2019     9    16    15    18   25.9990000     GPS         TIME OF FIRST OBS   
  2019     9    16    15    20   26.9990000     GPS         TIME OF LAST OBS    
G                                                           SYS / PHASE SHIFT   
R                                                           SYS / PHASE SHIFT   
E                                                           SYS / PHASE SHIFT   
J                                                           SYS / PHASE SHIFT   
S                                                           SYS / PHASE SHIFT   
C                                                           SYS / PHASE SHIFT   
  0                                                         GLONASS SLOT / FRQ #
 C1C    0.000 C1P    0.000 C2C    0.000 C2P    0.000        GLONASS COD/PHS/BIS 
                                                            END OF HEADER       
> 2019  9 16 15 18 25.9990000  0 12                     
R18  23172149.315                  
G 3  21326204.883   112069869.119  
G19  22922526.572   120458694.322  
G23  20513055.361   107796650.035  
R 3  21196077.100                  
G 6  21165638.484   111226148.502  
G17  23396992.879   122952060.663  
R19  20179503.122   107946693.548  
R20  21012903.051                  
R12  23444942.695   125238521.880  
R 5  21821174.558   116646607.998  
G 9  20378004.261   107087156.056  
> 2019  9 16 15 18 26.9990000  0 12                     
R18  23173075.233                  
G 3  21326661.677   112072255.722  
G19  22923050.785   120461449.730  
G23  20513272.992   107797789.668  
R 3  21196627.873                  
G 6  21165372.386   111224752.599  
G17  23397563.720   122955040.521  
R19  20180062.140   107949682.687  
R20  21012604.059                  
R12  23445481.331                  
R 5  21820742.622   116644299.863  
G 9  20377806.105   107086115.003  
> 2019  9 16 15 18 27.9990000  0 12                     
R18  23174002.206                  
G 3  21327117.808   112074642.102  
G19  22923575.391   120464205.025  
G23  20513489.959   107798929.097  
R 3  21197178.916                  
G 6  21165106.698   111223356.624  
G17  23398132.771   122958020.087  
R19  20180620.905   107952671.994  
R20  21012302.807                  
R12  23446021.337                  
R 5  21820306.776   116641991.343  
G 9  20377608.097   107085073.844  
> 2019  9 16 15 18 28.9990000  0 12                     
R18  23174929.694                  
G 3  21327571.209   112077028.869  
G19  22924100.311   120466960.929  
G23  20513707.319   107800069.067  
R 3  21197729.950                  
G 6  21164841.210   111221961.383  
G17  23398697.731   122961000.063  
R19  20181180.132   107955662.269  
R20  21012005.456                  
R12  23446560.662                  
R 5  21819869.762   116639683.205  
G 9  20377410.168   107084033.365  
> 2019  9 16 15 18 29.9990000  0 12                     
R18  23175858.857                  
G 3  21328024.417   112079416.703  
G19  22924625.065   120469718.073  
G23  20513924.932   107801210.193  
R 3  21198279.972                  
G 6  21164575.958   111220567.436  
G17  23399264.976   122963981.119  
R19  20181739.333   107958654.001  
R20  21011704.492                  
R12  23447098.940                  
R 5  21819438.837   116637376.024  
G 9  20377212.449   107082994.100  
> 2019  9 16 15 18 30.9990000  0 12                     
R18  23176787.191                  
G 3  21328478.533   112081805.243  
G19  22925150.046   120472476.087  
G23  20514142.553   107802352.108  
R 3  21198831.460                  
G 6  21164310.994   111219174.482  
G17  23399829.543   122966962.866  
R19  20182298.848   107961646.993  
R20  21011404.575                  
R12  23447637.733                  
R 5  21819012.782   116635069.529  
G 9  20377014.764   107081955.726  
> 2019  9 16 15 18 31.9990000  0 12                     
R18  23177716.214                  
G 3  21328935.650   112084194.110  
G19  22925675.473   120475234.624  
G23  20514360.131   107803494.583  
R 3  21199382.390                  
G 6  21164045.777   111217782.126  
G17  23400398.604   122969944.956  
R19  20182858.424   107964640.797  
R20  21011104.763                  
R12  23448179.231                  
R 5  21818580.679   116632763.315  
G 9  20376817.166   107080917.908  
> 2019  9 16 15 18 32.9990000  0 12                     
R18  23178641.564                  
G 3  21329391.528   112086583.077  
G19  22926200.611   120477993.414  
G23  20514577.544   107804637.134  
R 3  21199932.447                  
G 6  21163780.882   111216390.067  
G17  23400963.738   122972927.077  
R19  20183418.000   107967635.106  
R20  21010803.642                  
R12  23448721.400                  
R 5  21818150.593   116630457.041  
G 9  20376619.630   107079880.310  
> 2019  9 16 15 18 33.9990000  0 12                     
R18  23179569.235                  
G 3  21329845.818   112088972.099  
G19  22926725.819   120480752.418  
G23  20514795.122   107805779.894  
R 3  21200484.877                  
G 6  21163515.988   111214998.361  
G17  23401532.405   122975909.260  
R19  20183979.880   107970629.967  
R20  21010503.899                  
R12  23449262.506                  
R 5  21817719.284   116628150.763  
G 9  20376421.928   107078842.971  
> 2019  9 16 15 18 34.9990000  0 12                     
R18  23180495.048                  
G 3  21330301.723   112091361.457  
G19  22927251.262   120483511.960  
G23  20515012.979   107806923.158  
R 3  21201035.990                  
G 6  21163251.303   111213607.246  
G17  23402095.611   122978891.829  
R19  20184531.472   107973625.676  
R20  21010204.445                  
R12  23449803.131                  
R 5  21817286.763   116625844.896  
G 9  20376224.505   107077806.194  
> 2019  9 16 15 18 35.9990000  0 12                     
R18  23181423.103                  
G 3  21330756.912   112093751.160  
G19  22927776.880   120486272.048  
G23  20515230.627   107808066.898  
R 3  21201587.286                  
G 6  21162986.426   111212216.807  
G17  23402665.029   122981874.788  
R19  20185094.355   107976622.295  
R20  21009903.969                  
R12  23450345.946                  
R 5  21816856.938   116623539.277  
G 9  20376026.994   107076769.991  
> 2019  9 16 15 18 36.9990000  0 12                     
R18  23182349.561                  
G 3  21331213.060   112096141.050  
G19  22928302.350   120489032.439  
G23  20515448.423   107809210.815  
R 3  21202138.922                  
G 6  21162722.029   111210826.717  
G17  23403232.973   122984857.740  
R19  20185656.985   107979619.417  
R20  21009605.309                  
R12  23450886.170                  
R 5  21816427.654   116621233.701  
G 9  20375829.528   107075734.077  
> 2019  9 16 15 18 37.9990000  0 12                     
R18  23183277.092                  
G 3  21331667.307   112098530.197  
G19  22928827.828   120491792.277  
G23  20515666.202   107810354.187  
R 3  21202691.439                  
G 6  21162457.248   111209436.224  
G17  23403801.239   122987840.123  
R19  20186219.144   107982616.327  
R20  21009306.884                  
R12  23451427.083                  
R 5  21815996.887   116618927.255  
G 9  20375631.799   107074697.670  
> 2019  9 16 15 18 38.9990000  0 12                     
R18  23184204.022                  
G 3  21332120.175   112100919.585  
G19  22929353.141   120494552.488  
G23  20515883.832   107811497.870  
R 3  21203244.193   113502591.5922 
G 6  21162192.799   111208046.120  
G17  23404367.891   122990822.611  
R19  20186780.230   107985613.927  
R20  21009008.119                  
R12  23451968.083                  
R 5  21815566.006   116616620.983  
G 9  20375434.472   107073661.606  
> 2019  9 16 15 18 39.9990000  0 12                     
R18  23185131.038                  
G 3  21332575.416                  
G19  22929878.864   120497313.848  
G23  20516101.724   107812642.635  
R 3  21203797.085   113505544.1362 
G 6  21161928.594   111206657.277  
G17  23404935.774   122993806.078  
R19  20187338.331   107988612.971  
R20  21008710.183                  
R12  23452510.436                  
R 5  21815136.870   116614315.558  
G 9  20375236.883   107072626.734  
> 2019  9 16 15 18 40.9990000  0 12                     
R18  23186057.217                  
G 3  21333031.644                  
G19  22930404.499   120500075.941  
G23  20516319.835   107813788.036  
R 3  21204349.472   113508497.1162 
G 6  21161664.939   111205269.283  
G17  23405504.197   122996790.148  
R19  20187898.379   107991613.065  
R20  21008412.787                  
R12  23453051.628                  
R 5  21814704.873   116612010.768  
G 9  20375039.452   107071592.609  
> 2019  9 16 15 18 41.9990000  0 13                     
R18  23186983.815                  
G 3  21333488.604                  
G19  22930930.492   120502838.606  
G23  20516537.858   107814933.990  
R 3  21204903.141   113511450.3832 
G 6  21161400.952   111203881.950  
G17  23406075.726   122999774.506  
R19  20188459.386   107994614.057  
R20  21008113.106                  
R12  23453593.362                  
G 2  25076706.228                  
R 5  21814273.259   116609706.253  
G 9  20374842.439   107070559.088  
> 2019  9 16 15 18 42.9990000  0 13                     
R18  23187910.710                  
G 3  21333944.534                  
G19  22931456.512   120505601.724  
G23  20516755.916   107816080.272  
R 3  21205456.339   113514403.7102 
G 6  21161136.991   111202495.107  
G17  23406643.356   123002759.188  
R19  20189020.907   107997615.761  
R20  21007813.721                  
R12  23454136.578                  
G 2  25076171.850                  
R 5  21813844.777   116607401.921  
G 9  20374645.321   107069525.998  
> 2019  9 16 15 18 43.9990000  0 13                     
R18  23188837.063                  
G 3  21334399.880                  
G19  22931982.540   120508365.167  
G23  20516974.689   107817226.849  
R 3  21206008.639   113517357.1002 
G 6  21160873.406   111201108.726  
G17  23407211.483   123005744.057  
R19  20189582.080   108000618.123  
R20  21007515.113                  
R12  23454678.311                  
G 2  25075627.045                  
R 5  21813411.279   116605097.748  
G 9  20374448.290   107068493.298  
> 2019  9 16 15 18 44.9990000  0 13                     
R18  23189764.516                  
G 3  21334857.469                  
G19  22932508.725   120511129.074  
G23  20517192.738   107818373.854  
R 3  21206559.394   113520310.1981 
G 6  21160609.672   111199722.869  
G17  23407778.876   123008729.176  
R19  20190143.681   108003621.226  
R20  21007218.669                  
R12  23455220.368                  
G 2  25075080.940                  
R 5  21812979.238   116602793.733  
G 9  20374251.295   107067461.049  
> 2019  9 16 15 18 45.9990000  0 13                     
R18  23190691.978                  
G 3  21335313.643                  
G19  22933034.858   120513893.436  
G23  20517411.032   107819521.242  
R 3  21207110.384   113523263.990  
G 6  21160346.235   111198337.612  
G17  23408345.433   123011714.578  
R19  20190705.735   108006625.154  
R20  21006923.219                  
R12  23455761.132                  
G 2  25074536.171                  
R 5  21812549.230   116600489.888  
G 9  20374054.683   107066429.304  
> 2019  9 16 15 18 46.9990000  0 13                     
R18  23191620.347                  
G 3  21335771.904                  
G19  22933560.912   120516658.330  
G23  20517629.569   107820669.106  
R 3  21207663.364   113526217.987  
G 6  21160082.789   111196952.926  
G17  23408915.749   123014700.327  
R19  20191267.457   108009629.848  
R20  21006625.684                  
R12  23456301.365                  
G 2  25073994.420                  
R 5  21812117.590   116598186.431  
G 9  20373858.229   107065398.080  
> 2019  9 16 15 18 47.9990000  0 12                     
R18  23192547.686                  
G 3  21336225.880                  
G19  22934087.045   120519423.015  
G23  20517847.950   107821816.659  
R 3  21208214.268   113529171.434  
G 6  21159819.168   111195568.131  
G17  23409485.263   123017685.662  
R19  20191829.049   108012634.645  
R20  21006327.382                  
R12  23456843.238                  
R 5  21811686.569   116595882.406  
G 9  20373661.434   107064366.670  
> 2019  9 16 15 18 48.9990000  0 12                     
R18  23193475.898                  
G 3  21336680.720                  
G19  22934613.212   120522187.741  
G23  20518066.270   107822964.230  
R 3  21208767.823   113532124.635  
G 6  21159555.731   111194183.482  
G17  23410051.828   123020670.900  
R19  20192390.798   108015639.791  
R20  21006030.946                  
R12  23457386.882                  
R 5  21811255.697   116593578.274  
G 9  20373464.761   107063335.337  
> 2019  9 16 15 18 49.9990000  0 12                     
R18  23194404.983                  
G 3  21337136.868                  
G19  22935139.790   120524953.742  
G23  20518284.973   107824113.035  
R 3  21209319.521   113535078.883  
G 6  21159292.608   111192800.187  
G17  23410620.854   123023657.224  
R19  20192952.869   108018646.523  
R20  21005732.608                  
R12  23457928.380                  
R 5  21810826.858   116591275.155  
G 9  20373268.307   107062305.293  
> 2019  9 16 15 18 50.9990000  0 12                     
R18  23195332.183                  
G 3  21337593.924                  
G19  22935666.167   120527720.750  
G23  20518503.843   107825262.731  
R 3  21209870.668   113538033.757  
G 6  21159029.424   111191417.988  
G17  23411189.932   123026644.348  
R19  20193515.220   108021654.635  
R20  21005436.112                  
R12  23458468.865                  
R 5  21810397.094   116588972.728  
G 9  20373071.905   107061276.255  
> 2019  9 16 15 18 51.9990000  0 11                     
R18  23196258.056                  
G 3  21338049.646                  
G19  22936192.631   120530488.468  
G23  20518722.634   107826413.133  
R 3  21210425.027   113540989.164  
G 6  21158766.623   111190036.609  
G17  23411758.591   123029632.054  
R19  20194077.981   108024663.697  
R12  23459010.660                  
R 5  21809967.025   116586670.940  
G 9  20372875.834   107060247.985  
> 2019  9 16 15 18 52.9990000  0 11                     
R18  23197184.462                  
G 3  21338506.292                  
G19  22936719.689   120533256.646  
G23  20518941.704   107827563.871  
R 3  21210975.756   113543944.673  
G 6  21158504.251   111188655.736  
G17  23412326.438   123032620.015  
R19  20194640.689   108027673.485  
R12  23459554.600                  
R 5  21809535.996   116584369.240  
G 9  20372680.060   107059220.136  
> 2019  9 16 15 18 53.9990000  0 10                     
R18  23198114.070                  
G19  22937246.529   120536025.177  
G23  20519160.651   107828714.945  
R 3  21211529.093   113546900.207  
G 6  21158241.773   111187275.340  
G17  23412895.036   123035608.124  
R19  20195203.467   108030683.937  
R12  23460097.930                  
R 5  21809105.133   116582067.730  
G 9  20372484.129   107058192.702  
> 2019  9 16 15 18 54.9990000  0 10                     
R18  23199041.881                  
G19  22937773.508   120538793.799  
G23  20519379.660   107829866.017  
R 3  21212080.451   113549855.520  
G 6  21157979.121   111185895.100  
G17  23413463.468   123038596.159  
R19  20195766.141   108033694.782  
R12  23460641.531                  
R 5  21808674.540   116579765.977  
G 9  20372288.250   107057165.351  
> 2019  9 16 15 18 55.9990000  0 10                     
R18  23199969.325                  
G19  22938300.565   120541562.665  
G23  20519598.547   107831017.322  
R 3  21212632.794   113552810.886  
G 6  21157716.652   111184515.237  
G17  23414032.014   123041584.231  
R19  20196329.041   108036706.210  
R12  23461183.953                  
R 5  21808244.566   116577464.273  
G 9  20372092.441   107056138.279  
> 2019  9 16 15 18 56.9990000  0 10                     
R18  23200896.106                  
G19  22938827.449   120544331.943  
G23  20519817.408   107832168.948  
R 3  21213185.311   113555766.324  
G 6  21157454.192   111183135.888  
G17  23414600.821   123044572.614  
R19  20196892.142   108039718.386  
R12  23461727.056                  
R 5  21807813.197   116575162.668  
G 9  20371896.807   107055111.655  
> 2019  9 16 15 18 57.9990000  0 11                     
R18  23201823.681                  
G 7  24002037.002                  
G19  22939354.803   120547101.392  
G23  20520036.364   107833320.745  
R 3  21213737.392   113558721.634  
G 6  21157191.916   111181756.791  
G17  23415169.271   123047560.947  
R19  20197455.217   108042731.018  
R12  23462271.625                  
R 5  21807382.325   116572861.106  
G 9  20371701.164   107054085.229  
> 2019  9 16 15 18 58.9990000  0 12                     
R18  23202751.823                  
G 3  21341226.798                  
G 7  24001456.216                  
G19  22939881.895   120549871.162  
G23  20520255.435   107834472.706  
R 3  21214289.858   113561676.930  
G 6  21156929.639   111180378.078  
G17  23415738.279   123050549.458  
R19  20198018.388   108045744.225  
R12  23462813.812                  
R 5  21806949.795   116570559.558  
G 9  20371505.433   107053059.106  
> 2019  9 16 15 18 59.9990000  0 12                     
R18  23203676.833                  
G 3  21341679.614                  
G 7  24000871.337                  
G19  22940409.040   120552641.583  
G23  20520474.391   107835625.297  
R 3  21214841.747   113564632.605  
G 6  21156667.432   111179000.116  
G17  23416307.156   123053538.337  
R19  20198581.603   108048758.421  
R12  23463358.338                  
R 5  21806519.255   116568258.448  
G 9  20371309.782   107052033.637  
> 2019  9 16 15 19  0.9990000  0 12                     
R18  23204603.335                  
G 3  21342132.778                  
G 7  24000287.330                  
G19  22940936.386   120555412.472  
G23  20520693.749   107836778.318  
R 3  21215394.439   113567588.507  
G 6  21156405.007   111177622.738  
G17  23416875.928   123056527.606  
R19  20199143.831   108051773.356  
R12  23463900.420                  
R 5  21806090.442   116565957.597  
G 9  20371114.234   107051008.714  
> 2019  9 16 15 19  1.9990000  0 12                     
R18  23205531.695                  
G 3  21342586.283                  
G 7  23999704.615                  
G19  22941463.810   120558183.822  
G23  20520913.220   107837931.771  
R 3  21215947.183   113570544.480  
G 6  21156142.817   111176245.914  
G17  23417444.953   123059517.183  
R19  20199709.881   108054789.138  
R12  23464444.352                  
R 5  21805659.796   116563656.969  
G 9  20370918.679   107049984.263  
> 2019  9 16 15 19  2.9990000  0 11                     
R18  23206459.654                  
G 3  21343039.309                  
G19  22941991.339   120560955.440  
G23  20521132.404   107839085.362  
R 3  21216500.818   113573500.543  
G 6  21155880.802   111174869.429  
G17  23418013.988   123062506.757  
R19  20200272.468   108057805.430  
R12  23464988.197                  
R 5  21805229.081   116561356.312  
G 9  20370723.140   107048960.068  
> 2019  9 16 15 19  3.9990000  0 11                     
R18  23207387.482                  
G 3  21343492.229                  
G19  22942519.077   120563727.546  
G23  20521351.718   107840239.432  
R 3  21217055.525   113576456.723  
G 6  21155619.023   111173493.540  
G17  23418583.048   123065496.700  
R19  20200836.947   108060822.513  
R12  23465532.539                  
R 5  21804799.003   116559055.935  
G 9  20370527.802   107047936.404  
> 2019  9 16 15 19  4.9990000  0 12                     
R18  23208315.215                  
G 3  21343947.749                  
G 7  23997944.106                  
G19  22943046.876   120566500.171  
G23  20521571.163   107841393.928  
R 3  21217607.502   113579413.149  
G 6  21155357.418   111172118.275  
G17  23419152.178   123068486.988  
R19  20201403.303   108063840.436  
R12  23466074.726                  
R 5  21804369.484   116556755.829  
G 9  20370332.674   107046913.295  
> 2019  9 16 15 19  5.9990000  0 12                     
R18  23209242.030                  
G 3  21344405.251                  
G 7  23997358.154                  
G19  22943574.615   120569273.470  
G23  20521791.001   107842549.031  
R 3  21218160.298   113582369.971  
G 6  21155095.734   111170743.731  
G17  23419721.422   123071477.745  
R19  20201967.372   108066859.314  
R12  23466620.193                  
R 5  21803940.793   116554456.086  
G 9  20370137.607   107045890.839  
> 2019  9 16 15 19  6.9990000  0 12                     
R18  23210170.138                  
G 3  21344861.469                  
G 7  23996774.104                  
G19  22944102.510   120572047.246  
G23  20522010.883   107843704.597  
R 3  21218712.231   113585326.915  
G 6  21154834.496   111169369.820  
G17  23420290.587   123074468.846  
R19  20202531.939   108069879.022  
R12  23467163.087                  
R 5  21803511.265   116552156.668  
G 9  20369942.836   107044868.923  
> 2019  9 16 15 19  7.9990000  0 12                     
R18  23211098.402                  
G 3  21345317.775                  
G 7  23996188.588                  
G19  22944630.379   120574821.579  
G23  20522231.061   107844860.615  
R 3  21219265.045   113588284.160  
G 6  21154573.214   111167996.508  
G17  23420860.013   123077460.258  
R19  20203096.558   108072899.561  
R12  23467705.196                  
R 5  21803081.283   116549857.645  
G 9  20369748.362   107043847.540  
> 2019  9 16 15 19  8.9990000  0 12                     
R18  23212026.640                  
G 3  21345774.909                  
G 7  23995605.376                  
G19  22945158.405   120577596.443  
G23  20522451.161   107846017.154  
R 3  21219818.278   113591241.675  
G 6  21154312.132   111166623.854  
G17  23421429.554   123080452.064  
R19  20203661.396   108075920.970  
R12  23468246.877                  
R 5  21802649.076   116547558.822  
G 9  20369553.609   107042826.735  
> 2019  9 16 15 19  9.9990000  0 13                     
R18  23212951.973                  
G 3  21346232.105                  
G 7  23995020.008                  
G19  22945686.597   120580371.790  
G23  20522671.190   107847174.117  
R 3  21220372.340   113594199.338  
G 6  21154050.990   111165251.779  
G17  23421999.111   123083444.172  
R19  20204226.399   108078943.126  
R20  20999825.718                  
R12  23468791.446                  
R 5  21802218.160   116545260.190  
G 9  20369359.092   107041806.440  
> 2019  9 16 15 19 10.9990000  0 13                     
R18  23213881.188                  
G 3  21346691.404                  
G 7  23994436.787                  
G19  22946214.737   120583147.460  
G23  20522891.744   107848331.328  
R 3  21220925.591   113597157.036  
G 6  21153790.048   111163880.141  
G17  23422568.503   123086436.420  
R19  20204791.332   108081965.913  
R20  20999533.453                  
R12  23469336.547                  
R 5  21801791.232   116542961.725  
G 9  20369164.949   107040786.514  
> 2019  9 16 15 19 11.9990000  0 13                     
R18  23214810.011                  
G 3  21347147.875                  
G 7  23993852.266                  
G19  22946743.033   120585923.676  
G23  20523112.201   107849489.016  
R 3  21221477.096   113600115.033  
G 6  21153529.220   111162509.092  
G17  23423138.375   123089429.022  
R19  20205356.257   108084989.530  
R20  20999239.670                  
R12  23469881.247                  
R 5  21801361.572   116540663.519  
G 9  20368970.911   107039767.097  
> 2019  9 16 15 19 12.9990000  0 13                     
R18  23215738.275                  
G 3  21347604.730   112182418.2783 
G 7  23993268.547                  
G19  22947271.382   120588700.082  
G23  20523333.208   107850646.827  
R 3  21222029.265   113603072.813  
G 6  21153268.313   111161138.369  
G17  23423707.933   123092421.632  
R19  20205921.452   108088013.693  
R20  20998949.683                  
R12  23470427.308                  
R 5  21800933.056   116538365.294  
G 9  20368777.240   107038747.937  
> 2019  9 16 15 19 13.9990000  0 13                     
R18  23216668.398                  
G 3  21348062.956   112184817.8772 
G 7  23992683.860                  
G19  22947799.635   120591476.542  
G23  20523553.753   107851804.683  
R 3  21222583.318   113606030.458  
G 6  21153007.336   111159767.802  
G17  23424277.595   123095414.204  
R19  20206488.567   108091038.192  
R20  20998655.620                  
R12  23470969.477                  
R 5  21800502.376   116536066.879  
G 9  20368583.778   107037728.867  
> 2019  9 16 15 19 14.9990000  0 13                     
R18  23217595.397                  
G 3  21348520.134   112187217.8622 
G 7  23992097.707                  
G19  22948328.002   120594253.536  
G23  20523774.419   107852962.981  
R 3  21223134.919   113608988.351  
G 6  21152746.839   111158397.860  
G17  23424847.074   123098407.100  
R19  20207051.519   108094063.496  
R20  20998362.064                  
R12  23471511.263                  
R 5  21800073.336   116533842.2421 
G 9  20368389.985   107036710.333  
> 2019  9 16 15 19 15.9990000  0 13                     
R18  23218523.697                  
G 3  21348977.173   112189618.0712 
G 7  23991509.879                  
G19  22948856.394   120597030.970  
G23  20523995.173   107854121.671  
R 3  21223688.798   113611946.321  
G 6  21152486.142   111157028.424  
G17  23425416.658   123101400.252  
R19  20207616.331   108097089.550  
R20  20998070.148                  
R12  23472058.292                  
R 5  21799642.865   116531544.351  
G 9  20368196.296   107035692.248  
> 2019  9 16 15 19 16.9990000  0 13                     
R18  23219451.254                  
G 3  21349435.773   112192018.5182 
G 7  23990923.761                  
G19  22949384.952   120599808.749  
G23  20524215.744   107855280.649  
R 3  21224243.950   113614904.335  
G 6  21152225.462   111155659.461  
G17  23425986.416   123104393.550  
R19  20208186.909   108100116.302  
R20  20997778.974                  
R12  23472600.889                  
R 5  21799212.281   116529246.4982 
G 9  20368002.974   107034674.535  
> 2019  9 16 15 19 17.9990000  0 13                     
R18  23220378.410                  
G 3  21349892.192   112194419.2632 
G 7  23990337.609                  
G19  22949913.685   120602587.025  
G23  20524436.917   107856440.078  
R 3  21224797.218   113617862.639  
G 6  21151964.947   111154291.078  
G17  23426556.166   123107387.191  
R19  20208751.642   108103143.796  
R20  20997484.641                  
R12  23473145.633                  
R 5  21798783.992   116526948.9342 
G 9  20367809.748   107033657.364  
> 2019  9 16 15 19 18.9990000  0 13                     
R18  23221303.891                  
G 3  21350348.777   112196819.9911 
G 7  23989751.656                  
G19  22950442.636   120605365.964  
G23  20524657.933   107857600.106  
R 3  21225350.600   113620821.268  
G 6  21151704.450   111152923.469  
G17  23427125.959   123110381.315  
R19  20209317.387   108106172.361  
R20  20997192.891                  
R12  23473690.097                  
R 5  21798356.078   116524651.8832 
G 9  20367616.635   107032640.891  
> 2019  9 16 15 19 19.9990000  0 13                     
R18  23222231.039                  
G 3  21350807.160   112199221.633  
G 7  23989164.012                  
G19  22950971.518   120608145.459  
G23  20524878.870   107858760.619  
R 3  21225903.641   113623780.176  
G 6  21151444.460   111151556.516  
G17  23427695.447   123113375.810  
R19  20209881.308   108109201.745  
R20  20996899.160                  
R12  23474237.196                  
R 5  21797923.888   116522355.0992 
G 9  20367423.819   107031624.973  
> 2019  9 16 15 19 20.9990000  0 13                     
R18  23223158.666                  
G 3  21351262.610   112201623.598  
G 7  23988578.522                  
G19  22951500.739   120610925.456  
G23  20525099.964   107859921.581  
R 3  21226457.449   113626739.270  
G 6  21151184.765   111150190.130  
G17  23428265.694   123116370.606  
R19  20210443.248   108112231.938  
R20  20996607.366                  
R12  23474780.962                  
R 5  21797495.991   116520064.5843 
G 9  20367231.125   107030609.584  
> 2019  9 16 15 19 21.9990000  0 13                     
R18  23224085.500                  
G 3  21351717.066   112204025.906  
G 7  23987994.899                  
G19  22952029.638   120613705.935  
G23  20525321.407   107861083.004  
R 3  21227009.391   113629698.621  
G 6  21150924.792   111148824.389  
G17  23428835.566   123119365.768  
R19  20211016.000   108115262.897  
R20  20996317.998                  
R12  23475326.072                  
R 5  21797070.058   116517768.3302 
G 9  20367038.361   107029594.730  
> 2019  9 16 15 19 22.9990000  0 13                     
R18  23225013.476                  
G 3  21352177.185   112206428.590  
G 7  23987409.349                  
G19  22952558.903   120616486.998  
G23  20525542.728   107862244.912  
R 3  21227562.633   113632658.210  
G 6  21150665.002   111147459.276  
G17  23429405.699   123122361.305  
R19  20211580.985   108118294.769  
R20  20996029.118                  
R12  23475873.250                  
R 5  21796640.494                  
G 9  20366845.850   107028580.450  
> 2019  9 16 15 19 23.9990000  0 13                     
R18  23225942.072                  
G 3  21352636.047   112208831.800  
G 7  23986822.297                  
G19  22953087.793   120619268.691  
G23  20525764.128   107863407.386  
R 3  21228115.656   113635618.117  
G 6  21150405.238   111146094.881  
G17  23429975.902   123125357.254  
R19  20212146.756   108121327.545  
R20  20995736.417                  
R12  23476419.948                  
R 5  21796209.404                  
G 9  20366653.540   107027566.801  
> 2019  9 16 15 19 24.9990000  0 13                     
R18  23226866.951                  
G 3  21353090.102   112211235.147  
G 7  23986236.755                  
G19  22953616.997   120622050.802  
G23  20525985.536   107864570.241  
R 3  21228669.509   113638578.221  
G 6  21150145.753   111144731.008  
G17  23430545.914   123128353.446  
R19  20212712.833   108124361.032  
R20  20995445.565                  
R12  23476967.597                  
R 5  21795780.853                  
G 9  20366461.169   107026553.609  
> 2019  9 16 15 19 25.9990000  0 13                     
R18  23227797.353                  
G 3  21353548.388   112213638.653  
G 7  23985651.867                  
G19  22954146.419   120624833.123  
G23  20526206.971   107865733.246  
R 3  21229223.492   113641538.162  
G 6  21149886.277   111143367.482  
G17  23431116.039   123131349.734  
R19  20213282.556   108127395.071  
R20  20995153.370                  
R12  23477511.834                  
R 5  21795351.517                  
G 9  20366268.963   107025540.697  
> 2019  9 16 15 19 26.9990000  0 13                     
R18  23228724.727                  
G 3  21354006.430   112216042.459  
G 7  23985065.453                  
G19  22954675.946   120627616.002  
G23  20526428.501   107866896.741  
R 3  21229776.987   113644498.397  
G 6  21149626.897   111142004.582  
G17  23431686.382   123134346.350  
R19  20213849.374   108130429.937  
R20  20994863.217                  
R12  23478053.995                  
R 5  21794924.580                  
G 9  20366076.793   107024528.304  
> 2019  9 16 15 19 27.9990000  0 13                     
R18  23229654.571                  
G 3  21354460.485   112218446.685  
G 7  23984483.645                  
G19  22955205.473   120630399.476  
G23  20526650.058   107868060.829  
R 3  21230331.110   113647459.011  
G 6  21149367.639   111140642.391  
G17  23432256.855   123137343.397  
R19  20214416.838   108133465.761  
R20  20994572.784                  
R12  23478600.361                  
R 5  21794495.261                  
G 9  20365884.980   107023516.576  
> 2019  9 16 15 19 28.9990000  0 13                     
R18  23230581.692                  
G 3  21354921.136   112220851.337  
G 7  23983896.838                  
G19  22955735.026   120633183.488  
G23  20526871.562   107869225.312  
R 3  21230884.142   113650419.689  
G 6  21149108.329   111139280.817  
G17  23432827.303   123140340.751  
R19  20214984.694   108136502.376  
R20  20994282.142                  
R12  23479148.063                  
R 5  21794067.564                  
G 9  20365692.705   107022505.373  
> 2019  9 16 15 19 29.9990000  0 13                     
R18  23231510.698                  
G 3  21355379.134   112223256.124  
G 7  23983313.006                  
G19  22956264.989   120635967.838  
G23  20527093.058   107870390.071  
R 3  21231434.723   113653380.508  
G 6  21148849.351   111137919.664  
G17  23433397.847   123143338.321  
R19  20215552.506   108139539.653  
R20  20993990.514                  
R12  23479694.900                  
R 5  21793637.390                  
G 9  20365500.936   107021494.530  
> 2019  9 16 15 19 30.9990000  0 13                     
R18  23232438.998                  
G 3  21355837.394   112225661.289  
G 7  23982726.120                  
G19  22956794.865   120638752.726  
G23  20527314.676   107871555.381  
R 3  21231991.611   113656341.545  
G 6  21148590.529   111136559.173  
G17  23433968.303   123146336.214  
R19  20216119.865   108142577.702  
R20  20993701.207                  
R12  23480241.982                  
R 5  21793204.957                  
G 9  20365308.861   107020484.259  
> 2019  9 16 15 19 31.9990000  0 13                     
R18  23233365.273                  
G 3  21356294.634   112228066.608  
G 7  23982139.967                  
G19  22957324.601   120641537.874  
G23  20527535.945   107872720.870  
R 3  21232542.471   113659302.637  
G 6  21148331.655   111135199.060  
G17  23434538.759   123149334.242  
R19  20216687.931   108145616.421  
R20  20993411.298                  
R12  23480787.031                  
R 5  21792774.695                  
G 9  20365117.153   107019474.289  
> 2019  9 16 15 19 32.9990000  0 13                     
R18  23234291.853                  
G 3  21356752.222   112230472.302  
G 7  23981554.164                  
G19  22957854.503   120644323.644  
G23  20527757.554   107873886.893  
R 3  21233098.470   113662264.034  
G 6  21148072.982   111133839.616  
G17  23435109.320   123152332.674  
R19  20217254.583   108148655.963  
R20  20993120.315                  
R12  23481333.275                  
R 5  21792345.647                  
G 9  20364925.593   107018464.944  
> 2019  9 16 15 19 33.9990000  0 13                     
R18  23235220.065                  
G 3  21357209.810   112232878.434  
G 7  23980967.636                  
G19  22958382.241   120647110.020  
G23  20527979.686   107875053.476  
R 3  21233651.214   113665225.708  
G 6  21147814.439   111132480.909  
G17  23435680.056   123155331.532  
R19  20217819.970   108151696.490  
R20  20992830.738                  
R12  23481879.048                  
R 5  21791916.293                  
G 9  20364733.972   107017456.234  
> 2019  9 16 15 19 34.9990000  0 13                     
R18  23236146.872                  
G 3  21357667.599   112235284.741  
G 7  23980380.610                  
G19  22958911.995   120649896.767  
G23  20528201.801   107876220.328  
R 3  21234204.203   113668187.430  
G 6  21147556.054   111131122.633  
G17  23436251.009   123158330.580  
R19  20218387.861   108154737.636  
R20  20992541.596                  
R12  23482427.081                  
R 5  21791484.758                  
G 9  20364542.596   107016447.888  
> 2019  9 16 15 19 35.9990000  0 13                     
R18  23237073.732                  
G 3  21358126.854   112237691.018  
G 7  23979793.541                  
G19  22959440.658   120652683.618  
G23  20528424.300   107877387.324  
R 3  21234756.406   113671149.023  
G 6  21147297.677   111129764.632  
G17  23436821.954   123161329.601  
R19  20218958.353   108157779.260  
R20  20992250.684                  
R12  23482973.080                  
R 5  21791056.041                  
G 9  20364351.141   107015439.741  
> 2019  9 16 15 19 36.9990000  0 13                     
R18  23238001.220                  
G 3  21358580.821   112240097.961  
G 7  23979207.720                  
G19  22959968.920   120655471.234  
G23  20528646.668   107878555.015  
R 3  21235307.022   113674111.057  
G 6  21147039.178   111128407.474  
G17  23437392.803   123164329.173  
R19  20219528.512   108160821.896  
R20  20991959.649                  
R12  23483519.578                  
R 5  21790625.727                  
G 9  20364159.598   107014432.352  
> 2019  9 16 15 19 37.9990000  0 13                     
R18  23238926.683                  
G 3  21359042.615   112242505.195  
G 7  23978619.700                  
G19  22960500.741   120658259.396  
G23  20528869.185   107879723.143  
R 3  21235863.213   113677073.306  
G 6  21146781.081   111127050.916  
G17  23437963.661   123167329.071  
R19  20220101.482   108163865.400  
R20  20991667.593                  
R12  23484066.057                  
R 5  21790196.443                  
G 9  20363968.047   107013425.511  
> 2019  9 16 15 19 38.9990000  0 12                     
R18  23239853.839                  
G 3  21359495.771   112244912.561  
G19  22961032.807   120661047.838  
G23  20529091.919   107880891.511  
R 3  21236416.184   113680035.609  
G 6  21146522.887   111125694.784  
G17  23438534.606   123170329.143  
R19  20220673.325   108166909.519  
R20  20991376.707                  
R12  23484613.680                  
R 5  21789768.084                  
G 9  20363776.776   107012419.006  
> 2019  9 16 15 19 39.9990000  0 12                     
R18  23240781.039                  
G 3  21359955.646   112247320.217  
G19  22961563.311   120663836.718  
G23  20529314.497   107882060.218  
R 3  21236968.510   113682998.023  
G 6  21146264.930   111124339.130  
G17  23439105.464   123173329.380  
R19  20221242.237   108169954.299  
R20  20991087.077                  
R12  23485162.394                  
R 5  21789337.831                  
G 9  20363585.591   107011412.901  
> 2019  9 16 15 19 40.9990000  0 12                     
R18  23241708.501                  
G 3  21360411.437   112249728.185  
G19  22962094.574   120666626.063  
G23  20529537.423   107883229.431  
R 3  21237517.938   113685960.680  
G 6  21146007.164   111122984.110  
G17  23439676.435   123176330.011  
R19  20221806.490   108172999.882  
R20  20990795.405                  
R12  23485711.569                  
R 5  21788907.526                  
G 9  20363394.345   107010407.368  
> 2019  9 16 15 19 41.9990000  0 12                     
R18  23242636.346                  
G 3  21360871.119   112252136.410  
G19  22962624.616   120669415.848  
G23  20529760.315   107884398.995  
R 3  21238072.977   113688923.464  
G 6  21145749.546   111121629.623  
G17  23440247.528   123179330.851  
R19  20222375.829   108176046.220  
R20  20990505.313                  
R12  23486258.703                  
R 5  21788477.632                  
G 9  20363203.222   107009402.276  
> 2019  9 16 15 19 42.9990000  0 12                     
R18  23243565.492                  
G 3  21361330.147   112254545.040  
G19  22963155.085   120672206.191  
G23  20529983.285   107885569.011  
R 3  21238630.320   113691886.467  
G 6  21145491.859   111120275.771  
G17  23440818.709   123182332.067  
R19  20222943.729   108179093.401  
R20  20990216.520                  
R12  23486807.225                  
R 5  21788048.173                  
G 9  20363012.029   107008397.734  
> 2019  9 16 15 19 43.9990000  0 12                     
R18  23244492.081                  
G 3  21361788.076   112256953.781  
G19  22963684.987   120674996.815  
G23  20530206.142   107886739.287  
R 3  21239183.248   113694849.501  
G 6  21145234.459   111118922.275  
G17  23441389.671   123185333.375  
R19  20223513.994   108182141.119  
R20  20989928.714                  
R12  23487354.952                  
R 5  21787620.756                  
G 9  20362821.001   107007393.500  
> 2019  9 16 15 19 44.9990000  0 12                     
R18  23245418.269                  
G 3  21362246.388   112259362.783  
G19  22964215.517   120677787.886  
G23  20530429.313   107887909.969  
R 3  21239733.427   113697812.667  
G 6  21144977.296   111117569.378  
G17  23441960.956   123188334.962  
R19  20224083.211   108185189.712  
R20  20989640.288                  
R12  23487902.627                  
R 5  21787191.158                  
G 9  20362629.991   107006389.790  
> 2019  9 16 15 19 45.9990000  0 12                     
R18  23246344.788                  
G 3  21362704.718   112261771.713  
G19  22964747.339   120680579.035  
G23  20530652.466   107889080.678  
R 3  21240287.384   113700775.584  
G 6  21144719.530   111116216.683  
G17  23442532.058   123191336.495  
R19  20224654.025   108188238.615  
R20  20989352.944                  
R12  23488450.154                  
R 5  21786760.705                  
G 9  20362438.815   107005386.193  
> 2019  9 16 15 19 46.9990000  0 12                     
R18  23247272.084                  
G 3  21363163.301   112264180.637  
G19  22965279.152   120683370.375  
G23  20530875.663   107890251.432  
R 3  21240842.929   113703738.384  
G 6  21144462.130   111114864.172  
G17  23443103.256   123194337.927  
R19  20225224.386   108191287.946  
R20  20989067.738                  
R12  23488999.941                  
R 5  21786332.712                  
G 9  20362247.517   107004382.710  
> 2019  9 16 15 19 47.9990000  0 12                     
R18  23248199.048                  
G 3  21363621.762   112266590.133  
G19  22965812.047   120686162.463  
G23  20531098.747   107891422.948  
R 3  21241395.621   113706701.701  
G 6  21144204.966   111113512.574  
G17  23443674.254   123197339.989  
R19  20225794.563   108194338.406  
R20  20988778.771                  
R12  23489548.157                  
R 5  21785901.508                  
G 9  20362056.743   107003380.053  
> 2019  9 16 15 19 48.9990000  0 12                     
R18  23249127.365                  
G 3  21364082.020   112269000.176  
G19  22966343.563   120688955.219  
G23  20531321.996   107892595.127  
R 3  21241948.269   113709665.424  
G 6  21143947.855   111112161.773  
G17  23444245.417   123200342.564  
R19  20226365.150   108197389.835  
R20  20988490.179                  
R12  23490096.416                  
R 5  21785471.090                  
G 9  20361866.116   107002378.119  
> 2019  9 16 15 19 49.9990000  0 12                     
R18  23250055.315                  
G 3  21364538.169   112271410.506  
G19  22966876.388   120691748.432  
G23  20531545.760   107893767.566  
R 3  21242501.572   113712629.320  
G 6  21143690.892   111110811.515  
G17  23444816.850   123203345.415  
R19  20226935.824   108200442.041  
R20  20988201.788                  
R12  23490643.071                  
R 5  21785041.378                  
G 9  20361675.412   107001376.661  
> 2019  9 16 15 19 50.9990000  0 12                     
R18  23250980.369                  
G 3  21364996.089   112273820.992  
G19  22967408.855   120694542.003  
G23  20531768.853   107894940.433  
R 3  21243054.430   113715593.238  
G 6  21143434.059   111109461.691  
G17  23445388.092   123206348.415  
R19  20227506.682   108203494.889  
R20  20987916.494                  
R12  23491192.892                  
R 5  21784611.248                  
G 9  20361484.585   107000375.551  
> 2019  9 16 15 19 51.9990000  0 13                     
R18  23251906.164                  
G 3  21365456.007   112276231.631  
G19  22967939.769   120697335.896  
G23  20531991.753   107896113.491  
R 3  21243606.119   113718557.171  
G 6  21143177.236   111108112.273  
G 1  24546058.674                  
G17  23445959.403   123209351.525  
R19  20228077.583   108206548.299  
R20  20987629.264                  
R12  23491742.251                  
R 5  21784182.592                  
G 9  20361293.819   106999374.780  
> 2019  9 16 15 19 52.9990000  0 13                     
R18  23252833.608                  
G 3  21365912.190   112278642.496  
G19  22968473.222   120700130.179  
G23  20532215.273   107897286.874  
R 3  21244158.584   113721521.199  
G 6  21142920.604   111106763.387  
G 1  24546852.004                  
G17  23446530.976   123212354.898  
R19  20228648.493   108209602.467  
R20  20987343.839                  
R12  23492293.565                  
R 5  21783755.891                  
G 9  20361102.669   106998374.465  
> 2019  9 16 15 19 53.9990000  0 13                     
R18  23253759.988                  
G 3  21366371.934   112281053.653  
G19  22969006.501                  
G23  20532438.705   107898460.701  
R 3  21244712.358   113724485.425  
G 6  21142664.112   111105415.028  
G 1  24547640.510                  
G17  23447102.497   123215358.530  
R19  20229219.726   108212657.381  
R20  20987057.691                  
R12  23492843.709                  
R 5  21783328.849                  
G 9  20360912.410   106997374.565  
> 2019  9 16 15 19 54.9990000  0 13                     
R18  23254687.859                  
G 3  21366830.900   112283465.215  
G19  22969538.506                  
G23  20532662.243   107899634.990  
R 3  21245265.599   113727542.4161 
G 6  21142407.751   111104067.339  
G 1  24548436.371                  
G17  23447674.419   123218362.545  
R19  20229790.741   108215713.098  
R20  20986770.635                  
R12  23493392.318                  
R 5  21782901.755                  
G 9  20360721.653   106996375.312  
> 2019  9 16 15 19 55.9990000  0 14                     
R18  23255614.169                  
G 3  21367290.243   112285876.838  
G 7  23968004.558                  
G19  22970070.746                  
G23  20532885.527   107900809.489  
R 3  21245817.969   113730506.780  
G 6  21142151.495   111102719.994  
G 1  24549230.338                  
G17  23448245.897   123221366.617  
R19  20230361.791   108218769.359  
R20  20986481.074                  
R12  23493941.799                  
R 5  21782472.846                  
G 9  20360531.157   106995376.284  
> 2019  9 16 15 19 56.9990000  0 14                     
R18  23256541.727                  
G 3  21367749.384   112288288.489  
G 7  23967421.023                  
G19  22970602.908                  
G23  20533109.178   107901984.108  
R 3  21246371.760   113733471.0732 
G 6  21141895.072   111101372.912  
G 1  24550026.583                  
G17  23448817.417   123224370.652  
R19  20230932.029   108221826.123  
R20  20986195.371                  
R12  23494492.353                  
R 5  21782046.685                  
G 9  20360340.828   106994377.479  
> 2019  9 16 15 19 57.9990000  0 14                     
R18  23257469.372                  
G 3  21368208.744   112290700.676  
G 7  23966838.011                  
G19  22971137.949                  
G23  20533332.610   107903159.373  
R 3  21246925.857   113736435.6872 
G 6  21141638.886   111100026.679  
G 1  24550819.625                  
G17  23449389.052   123227375.277  
R19  20231504.963   108224883.953  
R20  20985908.655                  
R12  23495042.986                  
R 5  21781617.375                  
G 9  20360150.167   106993379.408  
> 2019  9 16 15 19 58.9990000  0 13                     
R18  23258400.009                  
G 3  21368667.606   112293113.236  
G 7  23966256.151                  
G19  22971671.393                  
G23  20533555.956   107904335.114  
R 3  21247480.189   113739400.7142 
G 6  21141382.629   111098681.078  
G17  23449960.599   123230380.229  
R19  20232078.866   108227942.559  
R20  20985624.243                  
R12  23495593.165                  
R 5  21781189.504                  
G 9  20359959.951   106992381.913  
> 2019  9 16 15 19 59.9990000  0 13                     
R18  23259328.937                  
G 3  21369126.712   112295525.872  
G 7  23965672.755                  
G19  22972204.550                  
G23  20533779.571   107905511.113  
R 3  21248033.221   113742365.7562 
G 6  21141126.582   111097335.840  
G17  23450532.399   123233385.294  
R19  20232646.600   108231001.765  
R20  20985338.146                  
R12  23496142.018                  
R 5  21780760.281                  
G 9  20359769.918   106991384.712  
> 2019  9 16 15 20  0.9990000  0 13                     
R18  23260260.045                  
G 3  21369586.412   112297938.908  
G 7  23965087.589                  
G19  22972737.183                  
G23  20534003.283   107906687.527  
R 3  21248585.896   113745330.8612 
G 6  21140870.814   111095991.231  
G17  23451104.129   123236390.686  
R19  20233219.325   108234061.826  
R20  20985053.804                  
R12  23496693.087                  
R 5  21780334.697                  
G 9  20359579.754   106990388.063  
> 2019  9 16 15 20  1.9990000  0 13                     
R18  23261191.791                  
G 3  21370045.833   112300352.251  
G 7  23964503.547                  
G19  22973272.250                  
G23  20534227.100   107907864.388  
R 3  21249136.171   113748296.1432 
G 6  21140615.238   111094647.205  
G17  23451676.103   123239396.391  
R19  20233794.161   108237122.636  
R20  20984772.122                  
R12  23497243.633                  
R 5  21779905.596                  
G 9  20359389.843   106989391.902  
> 2019  9 16 15 20  2.9990000  0 13                     
R18  23262122.237                  
G 3  21370505.149   112302765.771  
G 7  23963925.325                  
G19  22973803.854                  
G23  20534450.759   107909041.567  
R 3  21249691.873   113751261.0921 
G 6  21140359.636   111093303.650  
G17  23452247.973   123242402.261  
R19  20234367.637   108240184.127  
R20  20984487.326                  
R12  23497794.405                  
R 5  21779476.120                  
G 9  20359200.116   106988396.137  
> 2019  9 16 15 20  3.9990000  0 13                     
R18  23263051.199                  
G 3  21370964.927   112305179.627  
G 7  23963343.204                  
G19  22974334.489                  
G23  20534674.331   107910219.142  
R 3  21250244.958   113754226.749  
G 6  21140104.026   111091960.670  
G17  23452819.773   123245408.443  
R19  20234940.876   108243246.411  
R20  20984203.376                  
R12  23498344.890                  
R 5  21779049.384                  
G 9  20359010.790   106987400.906  
> 2019  9 16 15 20  4.9990000  0 14                     
R18  23263981.226                  
G 3  21371424.705   112307594.161  
G 7  23962760.166                  
G19  22974868.640                  
G23  20534898.558   107911397.517  
R 3  21250799.282   113757165.4471 
G 6  21139848.799   111090618.639  
G 1  24556391.323                  
G17  23453392.097   123248415.273  
R19  20235513.147   108246309.772  
R20  20983916.809                  
R12  23498895.322                  
R 5  21778621.670                  
G 9  20358821.455   106986406.480  
> 2019  9 16 15 20  5.9990000  0 14                     
R18  23264910.947                  
G 3  21371884.484   112310008.851  
G 7  23962176.438                  
G19  22975401.177                  
G23  20535120.551   107912576.150  
R 3  21251353.745   113760131.649  
G 6  21139593.458   111089277.044  
G 1  24557185.194                  
G17  23453964.254   123251422.264  
R19  20236085.506   108249373.865  
R20  20983633.199                  
R12  23499445.955                  
R 5  21778193.642                  
G 9  20358632.059   106985412.452  
> 2019  9 16 15 20  6.9990000  0 14                     
R18  23265839.962                  
G 3  21372344.131   112312423.740  
G 7  23961592.449                  
G19  22975933.888                  
G23  20535341.610   107913755.191  
R 3  21251906.367   113763098.0112 
G 6  21139338.458   111087935.991  
G 1  24557980.907                  
G17  23454536.203   123254429.522  
R19  20236658.449   108252438.623  
R20  20983348.342                  
R12  23499998.761                  
R 5  21777765.702                  
G 9  20358442.942   106984418.903  
> 2019  9 16 15 20  7.9990000  0 14                     
R18  23266770.408                  
G 3  21372803.578   112314838.856  
G 7  23961010.389                  
G19  22976465.378                  
G23  20535560.148   107914934.530  
R 3  21252460.891   113766064.3732 
G 6  21139083.205   111086595.364  
G 1  24558777.945                  
G17  23455108.692   123257436.919  
R19  20237231.331   108255504.041  
R20  20983064.104                  
R12  23500549.463                  
R 5  21777338.494                  
G 9  20358254.288   106983425.692  
> 2019  9 16 15 20  8.9990000  0 14                     
R18  23267701.403                  
G 3  21373263.557   112317254.454  
G 7  23960429.227                  
G19  22976998.142                  
G23  20535790.369   107916114.340  
R 3  21253013.732   113769031.0802 
G 6  21138828.231   111085255.468  
G 1  24559574.897                  
G17  23455681.426   123260444.765  
R19  20237805.469   108258570.325  
R20  20982777.545                  
R12  23501099.119                  
R 5  21776913.904                  
G 9  20358065.712   106982433.111  
> 2019  9 16 15 20  9.9990000  0 14                     
R18  23268630.444                  
G 3  21373723.562   112319670.267  
G 7  23959844.304                  
G19  22977529.876                  
G23  20536012.772   107917294.556  
R 3  21253568.631   113771997.9072 
G 6  21138573.266   111083916.090  
G 1  24560370.051                  
G17  23456253.932   123263452.797  
R19  20238377.758   108261637.401  
R20  20982492.836                  
R12  23501650.781                  
R 5  21776482.989                  
G 9  20357877.040   106981440.975  
> 2019  9 16 15 20 10.9990000  0 14                     
R18  23269561.570                  
G 3  21374183.358   112322086.353  
G 7  23959261.947                  
G19  22978062.344                  
G23  20536236.484   107918475.192  
R 3  21254123.243   113774964.9562 
G 6  21138318.336   111082577.247  
G 1  24561163.922                  
G17  23456826.535   123266461.134  
R19  20238950.526   108264705.154  
R20  20982207.987                  
R12  23502201.990                  
R 5  21776053.024                  
G 9  20357688.456   106980449.309  
> 2019  9 16 15 20 11.9990000  0 14                     
R18  23270492.085                  
G 3  21374643.450   112324502.762  
G 7  23958678.787                  
G19  22978596.983                  
G23  20536460.326   107919656.194  
R 3  21254676.615   113777932.1152 
G 6  21138063.825   111081238.997  
G 1  24561959.076                  
G17  23457399.120   123269469.741  
R19  20239521.087   108267773.761  
R20  20981922.964                  
R12  23502754.534                  
R 5  21775624.962                  
G 9  20357499.985   106979458.173  
> 2019  9 16 15 20 12.9990000  0 14                     
R18  23271422.845                  
G 3  21375103.325   112326919.270  
G 7  23958092.547                  
G19  22979132.199                  
G23  20536683.750   107920837.466  
R 3  21255233.059   113780898.8551 
G 6  21137809.235   111079901.152  
G 1  24562755.059                  
G17  23457971.601   123272478.500  
R19  20240095.391   108270842.888  
R20  20981639.433                  
R12  23503307.252                  
R 5  21775197.702                  
G 9  20357311.932   106978467.348  
> 2019  9 16 15 20 13.9990000  0 14                     
R18  23272352.628                  
G 3  21375563.138   112329335.951  
G 7  23957506.106                  
G19  22979664.858                  
G23  20536917.513   107922018.964  
R 3  21255786.292   113783866.079  
G 6  21137554.810   111078563.706  
G 1  24563549.585                  
G17  23458544.186   123275487.344  
R19  20240670.585   108273912.695  
R20  20981355.963                  
R12  23503859.586                  
R 5  21774770.049                  
G 9  20357123.479   106977476.839  
> 2019  9 16 15 20 14.9990000  0 13                     
R18  23273280.979                  
G 3  21376023.108   112331753.142  
G 7  23956921.873                  
G19  22980201.339                  
G23  20537145.265   107923201.069  
R 3  21256342.771   113786833.613  
G 6  21137300.622   111077227.036  
G17  23459116.649   123278496.700  
R19  20241242.804   108276983.424  
R20  20981071.376                  
R12  23504410.027                  
R 5  21774342.746                  
G 9  20356935.200   106976487.035  
> 2019  9 16 15 20 15.9990000  0 13                     
R18  23274211.207                  
G 3  21376483.270   112334170.767  
G 7  23956338.896                  
G19  22980736.101                  
G23  20537372.083   107924383.776  
R 3  21256896.964   113789801.617  
G 6  21137046.756   111075891.103  
G17  23459689.566   123281506.490  
R19  20241818.173   108280055.019  
R20  20980787.365                  
R12  23504963.033                  
R 5  21773913.933                  
G 9  20356747.514   106975497.892  
> 2019  9 16 15 20 16.9990000  0 13                     
R18  23275142.760                  
G 3  21376943.642   112336588.656  
G 7  23955755.875                  
G19  22981269.441                  
G23  20537598.770   107925566.861  
R 3  21257451.235   113792769.631  
G 6  21136792.454   111074555.688  
G17  23460262.239   123284516.526  
R19  20242393.812   108283127.433  
R20  20980503.066                  
R12  23505514.766                  
R 5  21773488.584                  
G 9  20356559.627   106974509.170  
> 2019  9 16 15 20 17.9990000  0 13                     
R18  23276072.141                  
G 3  21377404.240   112339007.052  
G 7  23955172.689                  
G19  22981804.682                  
G23  20537816.016   107926750.499  
R 3  21258006.222   113795738.062  
G 6  21136538.457   111073221.037  
G17  23460835.121   123287527.057  
R19  20242967.601   108286200.777  
R20  20980219.788                  
R12  23506068.967                  
R 5  21773060.512                  
G 9  20356371.523   106973521.164  
> 2019  9 16 15 20 18.9990000  0 13                     
R18  23277001.095                  
G 3  21377864.516   112341425.711  
G 7  23954587.382                  
G19  22982337.368                  
G23  20538037.259   107927934.551  
R 3  21258561.898   113798706.687  
G 6  21136284.723   111071886.980  
G17  23461408.282   123290537.825  
R19  20243545.736   108289274.914  
R20  20979936.684                  
R12  23506622.724                  
R 5  21772635.312                  
G 9  20356183.601   106972533.633  
> 2019  9 16 15 20 19.9990000  0 13                     
R18  23277929.377                  
G 3  21378324.766   112343844.617  
G 7  23954005.671                  
G19  22982870.132                  
G23  20538261.276   107929118.888  
R 3  21259115.584   113801675.361  
G 6  21136030.831   111070553.375  
G17  23461981.059   123293548.825  
R19  20244118.679   108292349.647  
R20  20979654.069                  
R12  23507177.928                  
R 5  21772209.570                  
G 9  20355995.811   106971546.524  
> 2019  9 16 15 20 20.9990000  0 13                     
R18  23278860.259                  
G 3  21378785.347   112346263.740  
G 7  23953420.102                  
G19  22983403.105                  
G23  20538492.474   107930303.715  
R 3  21259669.602   113804644.109  
G 6  21135777.192   111069220.262  
G17  23462554.072   123296560.010  
R19  20244694.196   108295425.141  
R20  20979370.748                  
R12  23507734.756                  
R 5  21771784.073                  
G 9  20355808.343   106970559.804  
> 2019  9 16 15 20 21.9990000  0 13                     
R18  23279789.308                  
G 3  21379245.771   112348683.161  
G 7  23952834.534                  
G19  22983938.015                  
G23  20538718.219   107931488.836  
R 3  21260224.432   113807613.096  
G 6  21135523.614   111067887.773  
G17  23463126.858   123299571.537  
R19  20245268.517   108298501.393  
R20  20979088.264                  
R12  23508290.415                  
R 5  21771357.528                  
G 9  20355620.963   106969573.635  
> 2019  9 16 15 20 22.9990000  0 13                     
R18  23280719.937                  
G 3  21379706.474   112351102.857  
G 7  23952249.716                  
G19  22984471.468                  
G23  20538942.070   107932674.349  
R 3  21260779.044   113810582.204  
G 6  21135270.272   111066555.803  
G17  23463699.696   123302583.276  
R19  20245841.355   108301578.425  
R20  20978806.198                  
R12  23508846.222                  
R 5  21770933.331   116378057.2183 
G 9  20355433.382   106968587.884  
> 2019  9 16 15 20 23.9990000  0 13                     
R18  23281648.332                  
G 3  21380167.308   112353522.705  
G 7  23951665.701                  
G19  22985004.424                  
G23  20539168.260   107933860.141  
R 3  21261332.608   113813551.342  
G 6  21135016.990   111065224.216  
G17  23464272.909   123305595.154  
R19  20246416.244   108304656.019  
R20  20978522.501                  
R12  23509399.786                  
R 5  21770506.909   116375774.3802 
G 9  20355246.324   106967602.487  
> 2019  9 16 15 20 24.9990000  0 13                     
R18  23282579.677                  
G 3  21380628.090   112355942.975  
G 7  23951080.648                  
G19  22985536.726                  
G23  20539393.464   107935046.506  
R 3  21261887.499   113816520.794  
G 6  21134763.962   111063893.395  
G17  23464846.088   123308607.462  
R19  20246992.511   108307734.516  
R20  20978239.755                  
R12  23509955.384                  
R 5  21770080.103   116373491.8732 
G 9  20355058.821   106966617.723  
> 2019  9 16 15 20 25.9990000  0 13                     
R18  23283508.421                  
G 3  21381088.959   112358363.750  
G 7  23950495.455                  
G19  22986072.107                  
G23  20539612.743   107936233.378  
R 3  21262442.835   113819490.538  
G 6  21134510.882   111062563.288  
G17  23465419.458   123311620.228  
R19  20247568.072   108310814.014  
R20  20977957.769                  
R12  23510507.788                  
R 5  21769653.968   116371209.6962 
G 9  20354871.755   106965633.622  
> 2019  9 16 15 20 26.9990000  0 13                     
R18  23284437.322                  
G 3  21381549.609   112360784.557  
G 7  23949909.904                  
G19  22986607.410                  
G23  20539841.306   107937420.479  
R 3  21262995.832   113822460.283  
G 6  21134258.002   111061233.519  
G17  23465992.750   123314633.053  
R19  20248144.130   108313893.999  
R20  20977675.974                  
R12  23511060.235                  
R 5  21769228.314   116368927.4602 
G 9  20354684.662   106964649.793  
