     3.02           OBSERVATION DATA    M: Mixed            RINEX VERSION / TYPE
CONVBIN 2.4.2                           20190916 155737 UTC PGM / RUN BY / DATE 
log: ./output_ubx/raw_obs_test_lollo_16-9-2019_17:55.ubx    COMMENT             
format: u-blox                                              COMMENT             
                                                            MARKER NAME         
                                                            MARKER NUMBER       
                                                            MARKER TYPE         
                                                            OBSERVER / AGENCY   
                                                            REC # / TYPE / VERS 
                                                            ANT # / TYPE        
        0.0000        0.0000        0.0000                  APPROX POSITION XYZ 
        0.0000        0.0000        0.0000                  ANTENNA: DELTA H/E/N
G    2 C1C L1C                                              SYS / # / OBS TYPES 
R    2 C1C L1C                                              SYS / # / OBS TYPES 
E    2 C1C L1C                                              SYS / # / OBS TYPES 
J    2 C1C L1C                                              SYS / # / OBS TYPES 
S    2 C1C L1C                                              SYS / # / OBS TYPES 
C    2 C1I L1I                                              SYS / # / OBS TYPES 
  2019     9    16    15    55   54.0000000     GPS         TIME OF FIRST OBS   
  2019     9    16    15    57   55.0000000     GPS         TIME OF LAST OBS    
G                                                           SYS / PHASE SHIFT   
R                                                           SYS / PHASE SHIFT   
E                                                           SYS / PHASE SHIFT   
J                                                           SYS / PHASE SHIFT   
S                                                           SYS / PHASE SHIFT   
C                                                           SYS / PHASE SHIFT   
  0                                                         GLONASS SLOT / FRQ #
 C1C    0.000 C1P    0.000 C2C    0.000 C2P    0.000        GLONASS COD/PHS/BIS 
                                                            END OF HEADER       
> 2019  9 16 15 55 54.0000000  0 14                     
G23  21171940.046   111259325.217  
G 7  22763818.264   119624565.900  
G22  24414151.884                  
G 2  23956419.655                  
R 3  22497575.607                  
G 6  20851691.573   109576335.692  
G19  24275198.680   127566971.982  
G17  24762520.100   130127819.573  
R13  21675143.014                  
R14  21285979.799   113466195.249  
R19  21741268.643   116301069.055  
R20  20755022.835   110986383.048  
R 5  20952312.599   112002043.366  
G 9  20157862.828   105930379.576  
> 2019  9 16 15 55 55.0000000  0 14                     
G23  21172306.431   111261228.139  
G 7  22763303.997   119621849.866  
G22  24414784.490                  
G 2  23955973.139                  
R 3  22498178.652                  
G 6  20851687.036   109576311.781  
G19  24275858.560   127570437.768  
G17  24763150.201   130131129.517  
R13  21675408.841                  
R14  21285541.956   113463862.295  
R19  21742076.518   116305380.927  
R20  20755102.556   110986808.998  
R 5  20951972.957   112000228.871  
G 9  20157864.119   105930386.724  
> 2019  9 16 15 55 56.0000000  0 14                     
G23  21172666.725   111263131.308  
G 7  22762788.919   119619134.016  
G22  24415414.966                  
G 2  23955522.732                  
R 3  22498782.202                  
G 6  20851682.194   109576288.465  
G19  24276518.972   127573903.834  
G17  24763780.067   130134439.374  
R13  21675673.291                  
R14  21285103.929   113461529.915  
R19  21742880.615   116309693.127  
R20  20755182.365   110987235.820  
R 5  20951633.437   111998414.552  
G 9  20157865.742   105930394.276  
> 2019  9 16 15 55 57.0000000  0 14                     
G23  21173026.488                  
G 7  22762272.393   119616418.521  
G22  24416045.696                  
G 2  23955073.903                  
R 3  22499385.029                  
G 6  20851677.447   109576265.822  
G19  24277178.948   127577369.947  
G17  24764409.749   130137749.313  
R13  21675937.400                  
R14  21284666.984   113459198.206  
R19  21743687.217   116314005.705  
R20  20755262.313   110987663.565  
R 5  20951294.248   111996600.430  
G 9  20157867.295   105930402.294  
> 2019  9 16 15 55 58.0000000  0 14                     
G23  21173394.609   111266938.9973 
G 7  22761756.983   119613703.265  
G22  24416675.736                  
G 2  23954624.770                  
R 3  22499988.920                  
G 6  20851672.989   109576243.826  
G19  24277839.447   127580836.264  
G17  24765039.310   130141059.228  
R13  21676200.069                  
R14  21284230.057   113456867.037  
R19  21744489.700   116318318.655  
R20  20755342.558   110988092.261  
R 5  20950955.007   111994786.575  
G 9  20157869.014   105930410.740  
> 2019  9 16 15 55 59.0000000  0 14                     
G23  21173756.125   111268843.2062 
G 7  22761240.718   119610988.367  
G22  24417307.687                  
G 2  23954177.887                  
R 3  22500593.317                  
G 6  20851669.377   109576222.598  
G19  24278499.205   127584302.907  
G17  24765669.280   130144369.257  
R13  21676463.393                  
R14  21283791.934   113454536.720  
R19  21745300.123   116322632.192  
R20  20755422.768   110988521.957  
R 5  20950615.879   111992972.997  
G 9  20157871.073   105930419.757  
> 2019  9 16 15 56  0.0000000  0 14                     
G23  21174114.674   111270747.5692 
G 7  22760726.426   119608273.709  
G22  24417937.430                  
G 2  23953729.966                  
R 3  22501198.673                  
G 6  20851665.686   109576201.972  
G19  24279160.036   127587769.602  
G17  24766299.512   130147679.290  
R13  21676727.249                  
R14  21283354.274   113452206.918  
R19  21746109.944   116326946.143  
R20  20755503.344   110988952.578  
R 5  20950276.874   111991159.701  
G 9  20157872.766   105930429.160  
> 2019  9 16 15 56  1.0000000  0 14                     
G23  21174477.936   111272651.8822 
G 7  22760210.588   119605558.969  
G22  24418567.374                  
G 2  23953283.650                  
R 3  22501804.257                  
G 6  20851662.239   109576181.699  
G19  24279819.480   127591236.206  
G17  24766929.657   130150989.016  
R13  21676991.568                  
R14  21282917.801   113449877.533  
R19  21746918.482   116331260.003  
R20  20755584.095   110989383.808  
R 5  20949937.843   111989346.259  
G 9  20157874.825   105930438.714  
> 2019  9 16 15 56  2.0000000  0 14                     
G23  21174841.677   111274556.4922 
G 7  22759694.481   119602844.379  
G22  24419197.397                  
G 2  23952835.049                  
R 3  22502403.934                  
G 6  20851658.523   109576162.021  
G19  24280478.880   127594702.907  
G17  24767559.636   130154298.675  
R13  21677256.505                  
R14  21282480.995   113447548.676  
R19  21747728.260   116335574.300  
R20  20755664.898   110989815.925  
R 5  20949598.584   111987533.018  
G 9  20157876.709   105930448.650  
> 2019  9 16 15 56  3.0000000  0 14                     
G23  21175204.406   111276461.5422 
G 7  22759176.846   119600130.349  
G22  24419825.683                  
G 2  23952384.842                  
R 3  22503006.621                  
G 6  20851654.902   109576143.240  
G19  24281137.757   127598170.002  
G17  24768189.475   130157608.583  
R13  21677522.639                  
R14  21282044.208   113445220.719  
R19  21748528.919   116339889.161  
R20  20755745.675   110990249.212  
R 5  20949259.160   111985720.247  
G 9  20157878.987   105930459.268  
> 2019  9 16 15 56  4.0000000  0 14                     
G23  21175569.019   111278367.1362 
G 7  22758662.955   119597416.894  
G22  24420453.699                  
G 2  23951937.078                  
R 3  22503609.098                  
G 6  20851651.115   109576125.399  
G19  24281797.951   127601637.608  
G17  24768819.603   130160918.850  
R13  21677787.804                  
R14  21281607.202   113442893.691  
R19  21749333.322   116344204.822  
R20  20755826.548   110990683.725  
R 5  20948920.120   111983907.962  
G 9  20157881.517   105930470.622  
> 2019  9 16 15 56  5.0000000  0 14                     
G23  21175934.034   111280273.1352 
G 7  22758146.751   119594703.681  
G22  24421083.442                  
G 2  23951486.985                  
R 3  22504212.649                  
G 6  20851647.799   109576108.247  
G19  24282458.180   127605105.321  
G17  24769449.739   130164229.097  
R13  21678053.221                  
R14  21281170.981   113440567.314  
R19  21750141.005   116348520.809  
R20  20755907.857   110991119.203  
R 5  20948581.332   111982095.935  
G 9  20157883.497   105930482.450  
> 2019  9 16 15 56  6.0000000  0 14                     
G23  21176300.934   111282179.3192 
G 7  22757630.521   119591990.639  
G22  24421712.645                  
G 2  23951040.504                  
R 3  22504815.790                  
G 6  20851644.458   109576091.659  
G19  24283117.606                  
G17  24770079.517   130167539.263  
R13  21678321.143                  
R14  21280735.974   113438241.493  
R19  21750949.701   116352837.191  
R20  20755989.751   110991555.507  
R 5  20948242.397   111980284.020  
G 9  20157886.045   105930494.623  
> 2019  9 16 15 56  7.0000000  0 13                     
G23  21176655.383   111284085.1251 
G 7  22757114.553   119589277.801  
G 2  23950592.923                  
R 3  22505419.340                  
G 6  20851640.959   109576075.646  
G19  24283776.108                  
G17  24770709.348   130170849.408  
R13  21678588.306                  
R14  21280300.442   113435916.332  
R19  21751753.362   116357153.808  
R20  20756071.453   110991992.664  
R 5  20947903.330   111978472.278  
G 9  20157888.462   105930507.185  
> 2019  9 16 15 56  8.0000000  0 13                     
G23  21177017.824   111285991.780  
G 7  22756595.601   119586565.156  
G 2  23950143.780                  
R 3  22506021.966                  
G 6  20851638.018   109576060.290  
G19  24284432.148                  
G17  24771339.275   130174159.512  
R13  21678853.602                  
R14  21279865.120   113433591.776  
R19  21752558.995   116361470.818  
R20  20756153.242   110992430.726  
R 5  20947564.796   111976660.780  
G 9  20157890.757   105930520.172  
> 2019  9 16 15 56  9.0000000  0 13                     
G23  21177382.647   111287898.675  
G 7  22756077.626   119583852.856  
G 2  23949696.261                  
R 3  22506624.714                  
G 6  20851634.947   109576045.589  
G19  24285092.369                  
G17  24771969.236   130177469.664  
R13  21679119.971                  
R14  21279429.406   113431267.848  
R19  21753368.493   116365788.286  
R20  20756235.110   110992869.757  
R 5  20947225.468   111974849.471  
G 9  20157893.174   105930533.617  
> 2019  9 16 15 56 10.0000000  0 14                     
G23  21177746.833   111289805.898  
G 7  22755558.980   119581140.712  
G22  24424237.081                  
G 2  23949248.497                  
R 3  22507229.774                  
G 6  20851632.190   109576031.529  
G19  24285749.919                  
G17  24772598.945   130180779.821  
R13  21679386.889                  
R14  21278993.857   113428944.583  
R19  21754175.400   116370106.104  
R20  20756317.554   110993309.691  
R 5  20946894.769   111973038.359  
G 9  20157896.210   105930547.494  
> 2019  9 16 15 56 11.0000000  0 13                     
G23  21178111.778   111291713.379  
G 7  22755040.831   119578428.985  
G 2  23948799.355                  
R 3  22507834.887                  
G 6  20851629.817   109576018.183  
G19  24286406.056                  
G17  24773228.740   130184090.016  
R13  21679654.619                  
R14  21278557.532   113426621.944  
R19  21754982.080   116374424.385  
R20  20756400.233   110993750.602  
R 5  20946549.028   111971227.561  
G 9  20157899.019   105930561.877  
> 2019  9 16 15 56 12.0000000  0 14                     
G23  21178474.402   111293620.859  
G 7  22754519.409   119575717.113  
G22  24425500.686                  
G 2  23948352.280                  
R 3  22508436.125                  
G 6  20851627.522   109576005.151  
G19  24287065.116                  
G17  24773858.510   130187399.871  
R13  21679921.389                  
R14  21278121.695   113424299.645  
R19  21755786.674   116378742.692  
R20  20756482.641   110994192.168  
R 5  20946215.449   111969416.640  
G 9  20157901.558   105930576.356  
> 2019  9 16 15 56 13.0000000  0 14                     
G23  21178841.406   111295528.563  
G 7  22754002.089   119573005.442  
G22  24426131.939                  
G 2  23947903.321                  
R 3  22509038.384                  
G 6  20851625.376   109575992.755  
G19  24287725.938                  
G17  24774488.524   130190709.758  
R13  21680188.718                  
R14  21277686.504   113421977.884  
R19  21756594.768   116383061.387  
R20  20756565.539   110994634.606  
R 5  20945873.835   111967606.007  
G 9  20157904.124   105930591.274  
> 2019  9 16 15 56 14.0000000  0 14                     
G23  21179204.475   111297436.556  
G 7  22753483.512   119570294.172  
G22  24426765.268                  
G 2  23947454.868                  
R 3  22509641.734                  
G 6  20851622.994   109575980.994  
G19  24288383.236                  
G17  24775118.660   130194019.633  
R13  21680456.980                  
R14  21277251.270   113419656.847  
R19  21757401.526   116387380.462  
R20  20756648.514   110995077.995  
R 5  20945537.325   111965795.487  
G 9  20157907.247   105930606.599  
> 2019  9 16 15 56 15.0000000  0 14                     
G23  21179565.206   111299345.081  
G 7  22752968.364   119567583.321  
G22  24427397.498                  
G 2  23947005.908                  
R 3  22510245.660                  
G 6  20851620.743   109575970.190  
G19  24289039.460                  
G17  24775748.683   130197329.754  
R13  21680724.152                  
R14  21276815.974   113417336.777  
R19  21758212.141   116391700.291  
R20  20756731.386   110995522.573  
R 5  20945195.755   111963985.533  
G 9  20157910.484   105930622.677  
> 2019  9 16 15 56 16.0000000  0 14                     
G23  21179935.753   111301253.817  
G 7  22752452.859   119564872.658  
G22  24428030.069                  
G 2  23946557.857                  
R 3  22510849.464                  
G 6  20851618.631   109575959.948  
G19  24289695.509                  
G17  24776378.400   130200639.905  
R13  21680991.829                  
R14  21276380.582                  
R19  21759019.894   116396020.283  
R20  20756814.990   110995968.042  
R 5  20944858.215   111962175.671  
G 9  20157913.564   105930639.111  
> 2019  9 16 15 56 17.0000000  0 14                     
G23  21180295.960   111303162.678  
G 7  22751935.233   119562162.017  
G22  24428663.363                  
G 2  23946110.276                  
R 3  22511451.287                  
G 6  20851616.939   109575950.163  
G19  24290355.066                  
G17  24777008.248   130203949.759  
R13  21681261.967                  
R14  21275945.435                  
R19  21759826.330   116400340.584  
R20  20756898.829   110996414.200  
R 5  20944522.865   111960365.845  
G 9  20157916.505   105930655.792  
> 2019  9 16 15 56 18.0000000  0 14                     
G23  21180657.215   111305071.642  
G 7  22751419.012   119559451.670  
G22  24429297.077                  
G 2  23945662.355                  
R 3  22512053.477                  
G 6  20851615.342   109575940.969  
G19  24291015.714                  
G17  24777638.062   130207259.551  
R13  21681530.020                  
R14  21275510.270                  
R19  21760636.543   116404661.165  
R20  20756982.311   110996861.242  
R 5  20944181.164   111958556.165  
G 9  20157919.811   105930672.843  
> 2019  9 16 15 56 19.0000000  0 14                     
G23  21181021.479   111306981.053  
G 7  22750901.403   119556741.516  
G22  24429929.708                  
G 2  23945213.099                  
R 3  22512657.743                  
G 6  20851613.885   109575932.493  
G19  24291674.608                  
G17  24778267.945   130210569.517  
R13  21681799.120                  
R14  21275075.010                  
R19  21761445.021   116408982.246  
R20  20757066.072   110997309.299  
R 5  20943843.162   111956746.791  
G 9  20157922.813   105930690.428  
> 2019  9 16 15 56 20.0000000  0 14                     
G23  21181385.648   111308890.721  
G 7  22750385.095   119554031.741  
G22  24430564.329                  
G 2  23944764.044                  
R 3  22513260.098                  
G 6  20851612.445   109575924.666  
G19  24292334.183                  
G17  24778894.626   130213879.443  
R13  21682068.682                  
R14  21274639.836                  
R19  21762253.987   116413303.671  
R20  20757150.409   110997758.261  
R 5  20943503.284   111954937.601  
G 9  20157926.224   105930708.425  
> 2019  9 16 15 56 21.0000000  0 14                     
G23  21181752.225   111310800.746  
G 7  22749868.839   119551322.207  
G22  24431195.119                  
G 2  23944314.875                  
R 3  22513863.780                  
G 6  20851611.075   109575917.590  
G19  24292995.564                  
G17  24779524.657   130217189.485  
R13  21682338.166                  
R14  21274204.558                  
R19  21763061.286   116417625.583  
R20  20757234.327   110998208.247  
R 5  20943164.523   111953128.720  
G 9  20157929.793   105930726.972  
> 2019  9 16 15 56 22.0000000  0 14                     
G23  21182110.251   111312711.047  
G 7  22749353.456   119548613.009  
G22  24431825.186                  
G 2  23943867.129                  
R 3  22514469.381                  
G 6  20851609.706   109575911.182  
G19  24293654.868                  
G17  24780154.488   130220499.484  
R13  21682607.623                  
R14  21273769.428                  
R19  21763875.557   116421947.900  
R20  20757318.603   110998659.170  
R 5  20942827.324   111951320.098  
G 9  20157933.519   105930745.970  
> 2019  9 16 15 56 23.0000000  0 14                     
G23  21182473.337   111314621.373  
G 7  22748840.471   119545903.812  
G22  24432455.810                  
G 2  23943419.252                  
R 3  22515070.916                  
G 6  20851608.327   109575905.178  
G19  24294316.240                  
G17  24780788.402   130223809.334  
R13  21682877.020                  
R14  21273334.708                  
R19  21764681.914   116426270.356  
R20  20757402.870   110999110.794  
R 5  20942486.155   111949511.538  
G 9  20157937.227   105930765.170  
> 2019  9 16 15 56 24.0000000  0 14                     
G23  21182836.171   111316531.663  
G 7  22748325.725   119543194.692  
G22  24433086.243                  
G 2  23942971.532                  
R 3  22515673.568                  
G 6  20851607.009   109575899.546  
G19  24294980.203                  
G17  24781418.800   130227118.812  
R13  21683146.285                  
R14  21272899.447                  
R19  21765485.034   116430592.837  
R20  20757487.355   110999563.093  
R 5  20942147.271   111947702.835  
G 9  20157940.734   105930784.527  
> 2019  9 16 15 56 25.0000000  0 14                     
G23  21183201.212   111318442.395  
G 7  22747809.582   119540485.856  
G22  24433717.845                  
G 2  23942525.103                  
R 3  22516273.882                  
G 6  20851606.006   109575894.675  
G19  24295641.601                  
G17  24782046.606   130230428.412  
R13  21683413.099                  
R14  21272464.919                  
R19  21766290.623   116434915.966  
R20  20757571.875   111000016.381  
R 5  20941808.711   111945894.490  
G 9  20157944.416   105930804.440  
> 2019  9 16 15 56 26.0000000  0 14                     
G23  21183564.081   111320353.545  
G 7  22747295.595   119537777.358  
G22  24434347.344                  
G 2  23942076.353                  
R 3  22516876.665                  
G 6  20851605.448   109575890.584  
G19  24296304.090                  
G17  24782677.501   130233738.273  
R13  21683683.901                  
R14  21272030.470                  
R19  21767098.377   116439239.561  
R20  20757656.919   111000470.817  
R 5  20941473.396   111944086.424  
G 9  20157948.674   105930824.923  
> 2019  9 16 15 56 27.0000000  0 14                     
G23  21183924.829   111322264.906  
G 7  22746782.218   119535069.082  
G22  24434980.037                  
G 2  23941629.680                  
R 3  22517479.657                  
G 6  20851604.575   109575887.098  
G19  24296966.439                  
G17  24783305.491   130237048.019  
R13  21683954.667                  
R14  21271595.384                  
R19  21767906.732   116443563.436  
R20  20757742.085   111000926.091  
R 5  20941132.550   111942278.561  
G 9  20157952.539   105930845.805  
> 2019  9 16 15 56 28.0000000  0 14                     
G23  21184288.631   111324176.155  
G 7  22746268.222   119532360.632  
G22  24435610.417                  
G 2  23941182.526                  
R 3  22518083.173                  
G 6  20851604.017   109575883.901  
G19  24297628.745                  
G17  24783935.156   130240357.389  
R13  21684224.718                  
R14  21271161.458                  
R19  21768717.286   116447887.387  
R20  20757827.364   111001381.913  
R 5  20940793.771   111940470.565  
G 9  20157956.500   105930866.758  
> 2019  9 16 15 56 29.0000000  0 14                     
G23  21184650.828   111326087.818  
G 7  22745753.231                  
G22  24436241.923                  
G 2  23940732.957                  
R 3  22518687.037                  
G 6  20851603.868   109575881.499  
G19  24298291.652                  
G17  24784566.461   130243666.890  
R13  21684492.648                  
R14  21270727.323                  
R19  21769522.334   116452211.865  
R20  20757912.538   111001838.800  
R 5  20940458.841   111938662.946  
G 9  20157960.383   105930888.291  
> 2019  9 16 15 56 30.0000000  0 14                     
G23  21185017.003   111328000.177  
G 7  22745238.101                  
G22  24436871.483                  
G 2  23940285.315                  
R 3  22519290.832                  
G 6  20851603.458   109575880.135  
G19  24298952.204                  
G17  24785195.794   130246976.781  
R13  21684760.841                  
R14  21270293.074                  
R19  21770331.963   116456537.130  
R20  20757998.001   111002297.013  
R 5  20940120.821   111936855.964  
G 9  20157964.545   105930910.660  
> 2019  9 16 15 56 31.0000000  0 14                     
G23  21185380.858   111329913.057  
G 7  22744721.958                  
G22  24437503.024                  
G 2  23939835.841                  
R 3  22519894.776                  
G 6  20851603.327   109575879.676  
G19  24299616.499                  
G17  24785823.191   130250287.053  
R13  21685031.337                  
R14  21269859.776                  
R19  21771142.168   116460863.000  
R20  20758083.934   111002756.416  
R 5  20939780.987   111935049.437  
G 9  20157969.291   105930933.717  
> 2019  9 16 15 56 32.0000000  0 14                     
G23  21185745.559   111331826.266  
G 7  22744211.112                  
G22  24438133.221                  
G 2  23939388.025                  
R 3  22520499.286                  
G 6  20851603.642   109575879.877  
G19  24300278.246                  
G17  24786453.501   130253597.234  
R13  21685303.612                  
R14  21269425.851                  
R19  21771949.607   116465189.370  
R20  20758170.016   111003216.742  
R 5  20939441.763   111933243.092  
G 9  20157973.785   105930957.230  
> 2019  9 16 15 56 33.0000000  0 14                     
G23  21186106.804   111333739.683  
G 7  22743698.739                  
G22  24438765.137                  
G 2  23938941.692                  
R 3  22521104.765                  
G 6  20851603.851   109575880.778  
G19  24300940.142                  
G17  24787082.337   130256907.443  
R13  21685574.902                  
R14  21268992.588                  
R19  21772759.122   116469516.077  
R20  20758255.863   111003678.007  
R 5  20939107.313   111931437.091  
G 9  20157978.409   105930981.231  
> 2019  9 16 15 56 34.0000000  0 14                     
G23  21186469.001   111335653.434  
G 7  22743185.039                  
G22  24439398.554                  
G 2  23938496.179                  
R 3  22521709.982                  
G 6  20851603.947   109575882.333  
G19  24301600.301                  
G17  24787712.334   130260217.728  
R13  21685849.621                  
R14  21268559.212                  
R19  21773568.568   116473843.205  
R20  20758342.084   111004140.296  
R 5  20938765.707   111929631.284  
G 9  20157983.060   105931005.671  
> 2019  9 16 15 56 35.0000000  0 14                     
G23  21186831.329   111337567.288  
G 7  22742672.238                  
G22  24440030.400                  
G 2  23938048.781                  
R 3  22522315.243                  
G 6  20851604.523   109575884.358  
G19  24302259.221                  
G17  24788343.988   130263527.793  
R13  21686121.530                  
R14  21268126.350                  
R19  21774377.604   116478170.484  
R20  20758428.524   111004603.259  
R 5  20938424.006   111927825.481  
G 9  20157988.033   105931030.359  
> 2019  9 16 15 56 36.0000000  0 14                     
G23  21187195.131   111339481.166  
G 7  22742158.129                  
G22  24440663.224                  
G 2  23937600.110                  
R 3  22522917.476                  
G 6  20851604.968   109575886.752  
G19  24302919.616                  
G17  24788975.590   130266837.630  
R13  21686392.977                  
R14  21267691.927                  
R19  21775186.779   116482497.934  
R20  20758515.025   111005066.845  
R 5  20938087.775   111926019.658  
G 9  20157992.945   105931055.225  
> 2019  9 16 15 56 37.0000000  0 14                     
G23  21187561.201   111341395.221  
G 7  22741643.679                  
G22  24441293.665                  
G 2  23937152.434                  
R 3  22523520.373                  
G 6  20851605.413   109575889.750  
G19  24303579.836                  
G17  24789605.656   130270147.352  
R13  21686665.061                  
R14  21267258.534                  
R19  21775995.728   116486825.657  
R20  20758601.901   111005531.357  
R 5  20937750.549   111924213.967  
G 9  20157997.666   105931080.472  
> 2019  9 16 15 56 38.0000000  0 13                     
G23  21187923.224   111343309.554  
G 7  22741133.190                  
G22  24441924.054                  
G 2  23936703.422                  
G 6  20851606.102   109575893.362  
G19  24304238.303                  
G17  24790235.417   130273457.099  
R13  21686937.049                  
R14  21266824.328                  
R19  21776805.235   116491153.734  
R20  20758689.248   111005996.738  
R 5  20937413.699   111922408.511  
G 9  20158002.726   105931106.131  
> 2019  9 16 15 56 39.0000000  0 14                     
G23  21188287.829   111345203.3633 
G 7  22740619.098                  
G22  24442557.680                  
G 2  23936255.344                  
R 3  22524726.645                  
G 6  20851606.948   109575897.355  
G19  24304895.966                  
G17  24790865.117   130276766.566  
R13  21687208.600                  
R14  21266392.174                  
R19  21777613.188   116495481.955  
R20  20758776.411   111006462.811  
R 5  20937074.074   111920602.892  
G 9  20158007.926   105931131.955  
> 2019  9 16 15 56 40.0000000  0 14                     
G23  21188650.872   111347118.2802 
G 7  22740103.261                  
G22  24443187.598                  
G 2  23935809.639                  
R 3  22525329.044                  
G 6  20851607.978   109575902.440  
G19  24305553.857                  
G17  24791494.922   130280076.450  
R13  21687478.913                  
R14  21265960.054                  
R19  21778426.360   116499811.008  
R20  20758864.273   111006930.225  
R 5  20936736.098   111918798.024  
G 9  20158012.743   105931158.659  
> 2019  9 16 15 56 41.0000000  0 13                     
G23  21189010.364                  
G 7  22739588.593                  
G22  24443820.186                  
G 2  23935361.832                  
R 3  22525931.705                  
G 6  20851609.130   109575908.411  
G17  24792124.491   130283386.584  
R13  21687751.354                  
R14  21265527.350                  
R19  21779232.717   116504140.619  
R20  20758952.170   111007398.876  
R 5  20936396.351   111916993.629  
G 9  20158018.004   105931186.038  
> 2019  9 16 15 56 42.0000000  0 13                     
G23  21189374.393                  
G 7  22739074.248                  
G22  24444453.655                  
G 2  23934914.112                  
R 3  22526533.423                  
G 6  20851610.787   109575915.147  
G17  24792754.321   130286696.891  
R13  21688025.506                  
R14  21265095.754                  
R19  21780041.334   116508470.865  
R20  20759039.971   111007868.462  
R 5  20936059.754   111915189.616  
G 9  20158023.719   105931213.956  
> 2019  9 16 15 56 43.0000000  0 13                     
G23  21189737.872                  
G 7  22738558.341                  
G22  24445085.693                  
G 2  23934469.140                  
R 3  22527135.028                  
G 6  20851612.297   109575922.715  
G17  24793384.231   130290007.281  
R13  21688299.780                  
R14  21264664.009                  
R19  21780855.526   116512801.520  
R20  20759128.321   111008339.215  
R 5  20935721.176   111913385.868  
G 9  20158028.640   105931242.519  
> 2019  9 16 15 56 44.0000000  0 13                     
G23  21190102.503                  
G 7  22738044.755                  
G22  24445718.604                  
G 2  23934020.940                  
R 3  22527737.671                  
G 6  20851614.304   109575930.939  
G17  24794014.210   130293317.732  
R13  21688574.315                  
R14  21264232.893                  
R19  21781662.468   116517132.669  
R20  20759216.567   111008810.877  
R 5  20935385.103   111911582.408  
G 9  20158034.294   105931271.530  
> 2019  9 16 15 56 45.0000000  0 13                     
G23  21190467.788                  
G 7  22737529.319                  
G22  24446351.271                  
G 2  23933574.319                  
R 3  22528339.137                  
G 6  20851615.874   109575939.739  
G17  24794644.023   130296628.156  
R13  21688849.523                  
R14  21263801.994                  
R19  21782474.531   116521464.088  
R20  20759304.874   111009283.445  
R 5  20935047.999   111909779.077  
G 9  20158040.270   105931300.893  
> 2019  9 16 15 56 46.0000000  0 13                     
G23  21190831.573                  
G 7  22737016.291                  
G22  24446982.393                  
G 2  23933129.295                  
R 3  22528941.771                  
G 6  20851617.672   109575949.119  
G17  24795274.098   130299938.422  
R13  21689121.755                  
R14  21263369.857                  
R19  21783283.331   116525795.868  
R20  20759393.198   111009756.804  
R 5  20934708.741   111907975.937  
G 9  20158046.142   105931330.615  
> 2019  9 16 15 56 47.0000000  0 14                     
G23  21191196.832                  
G 7  22736502.635                  
G22  24447615.373                  
G 2  23932683.424                  
R 3  22529544.833                  
G 6  20851619.486   109575959.162  
G17  24795904.059   130303248.727  
R13  21689397.556                  
R14  21262938.523                  
R19  21784094.714   116530127.998  
R20  20759481.845   111010231.161  
G26  24916950.461                  
R 5  20934368.924   111906172.991  
G 9  20158051.543   105931360.795  
> 2019  9 16 15 56 48.0000000  0 13                     
G23  21191561.324                  
G22  24448248.956                  
G 2  23932235.809                  
R 3  22530147.843                  
G 6  20851621.580   109575969.783  
G17  24796533.960   130306558.989  
R13  21689671.541                  
R14  21262508.392                  
R19  21784901.542   116534460.459  
R20  20759570.684   111010706.362  
G26  24916932.898                  
R 5  20934030.948   111904370.233  
G 9  20158057.040   105931391.363  
> 2019  9 16 15 56 49.0000000  0 13                     
G23  21191925.030                  
G22  24448881.901                  
G 2  23931789.720                  
R 3  22530752.092                  
G 6  20851623.718   109575980.810  
G17  24797163.791   130309868.975  
R13  21689945.710                  
R14  21262077.032                  
R19  21785711.538   116538793.045  
R20  20759659.392   111011182.265  
G26  24916905.963                  
R 5  20933694.683   111902567.450  
G 9  20158063.313   105931422.102  
> 2019  9 16 15 56 50.0000000  0 13                     
G23  21192288.867                  
G22  24449513.477                  
G 2  23931345.690                  
R 3  22531356.602                  
G 6  20851625.786   109575992.325  
G17  24797793.360   130313178.803  
R13  21690221.319                  
R14  21261645.636                  
R19  21786519.422   116543125.839  
R20  20759748.554   111011658.863  
G26  24916886.628                  
R 5  20933359.167   111900764.659  
G 9  20158069.133   105931453.119  
> 2019  9 16 15 56 51.0000000  0 13                     
G23  21192651.744                  
G22  24450145.000                  
G 2  23930900.457                  
R 3  22531959.054                  
G 6  20851628.107   109576004.853  
G17  24798423.400   130316489.036  
R13  21690493.630                  
R14  21261214.904                  
R19  21787330.098   116547459.361  
R20  20759837.803   111012136.797  
G26  24916864.720                  
R 5  20933022.971   111898962.490  
G 9  20158075.206   105931484.943  
> 2019  9 16 15 56 52.0000000  0 13                     
G23  21193015.180                  
G22  24450776.131                  
G 2  23930457.029                  
R 3  22532563.730                  
G 6  20851630.803   109576018.319  
G17  24799053.126   130319799.510  
R13  21690765.871                  
R14  21260783.194                  
R19  21788145.512   116551793.545  
R20  20759927.367   111012615.961  
G26  24916844.076                  
R 5  20932686.810   111897160.803  
G 9  20158081.540   105931517.497  
> 2019  9 16 15 56 53.0000000  0 13                     
G23  21193377.952                  
G22  24451407.681                  
G 2  23930009.911                  
R 3  22533168.022                  
G 6  20851633.324   109576032.670  
G17  24799683.122   130323110.297  
R13  21691038.024                  
R14  21260353.116                  
R19  21788954.329   116556128.471  
R20  20760016.799   111013096.212  
G26  24916824.174                  
R 5  20932348.067   111895359.601  
G 9  20158088.075   105931550.709  
> 2019  9 16 15 56 54.0000000  0 13                     
G23  21193744.372                  
G22  24452039.946                  
G 2  23929563.194                  
R 3  22533771.276                  
G 6  20851635.863   109576047.667  
G17  24800313.503   130326420.992  
R13  21691311.548                  
R14  21259922.383                  
R19  21789766.201   116560463.689  
R20  20760106.572   111013577.456  
G26  24916801.245                  
R 5  20932010.728   111893558.642  
G 9  20158094.226   105931584.361  
> 2019  9 16 15 56 55.0000000  0 12                     
G23  21194107.808                  
G22  24452671.059                  
G 2  23929118.013                  
R 3  22534374.818                  
G 6  20851638.525   109576063.468  
G17  24800943.482   130329731.856  
R13  21691584.495                  
R14  21259491.651                  
R19  21790570.132   116564799.416  
R20  20760196.737   111014059.742  
R 5  20931673.424   111891758.033  
G 9  20158100.805   105931618.597  
> 2019  9 16 15 56 56.0000000  0 12                     
G23  21194471.514                  
G22  24453304.231                  
G 2  23928672.352                  
R 3  22534979.730                  
G 6  20851641.509   109576079.972  
G17  24801573.522   130333042.785  
R13  21691858.804                  
R14  21259061.974                  
R19  21791385.485   116569135.571  
R20  20760287.112   111014543.032  
R 5  20931336.617   111889957.637  
G 9  20158107.628   105931653.328  
> 2019  9 16 15 56 57.0000000  0 13                     
G23  21194836.581                  
G 7  22731365.108                  
G22  24453938.180                  
G 2  23928226.333                  
R 3  22535587.137                  
G 6  20851644.903   109576097.061  
G17  24802203.431   130336353.678  
R13  21692133.558                  
R14  21258632.411                  
R19  21792196.161   116573472.104  
R20  20760377.739   111015027.173  
R 5  20931001.634   111888157.480  
G 9  20158114.058   105931688.446  
> 2019  9 16 15 56 58.0000000  0 12                     
G23  21195200.200                  
G 7  22730853.075                  
G 2  23927780.742                  
R 3  22536190.766                  
G 6  20851648.515   109576114.862  
G17  24802833.401   130339664.608  
R13  21692408.076                  
R14  21258203.389                  
R19  21793010.903   116577809.039  
R20  20760468.227   111015512.386  
R 5  20930667.375                  
G 9  20158120.655   105931724.052  
> 2019  9 16 15 56 59.0000000  0 12                     
G23  21195568.836                  
G 7  22730342.726                  
G 2  23927333.824                  
R 3  22536795.338                  
G 6  20851652.450   109576133.211  
G17  24803463.468   130342975.440  
R13  21692681.564                  
R14  21257774.454                  
R19  21793815.672   116582146.246  
R20  20760559.187   111015998.370  
R 5  20930330.804                  
G 9  20158127.643   105931760.002  
> 2019  9 16 15 57  0.0000000  0 12                     
G23  21195934.915                  
G 7  22729826.915                  
G 2  23926888.765                  
R 3  22537399.037                  
G 6  20851656.079   109576151.960  
G17  24804093.246   130346286.014  
R13  21692957.836                  
R14  21257346.260                  
R19  21794624.219   116586483.582  
R20  20760649.884   111016484.959  
R 5  20929993.230                  
G 9  20158134.798   105931796.133  
> 2019  9 16 15 57  1.0000000  0 12                     
G23  21196300.628                  
G 7  22729314.734                  
G 2  23926439.989                  
R 3  22538003.669                  
G 6  20851659.875   109576171.623  
G17  24804723.199   130349596.825  
R13  21693232.956                  
R14  21256916.042                  
R19  21795434.520   116590821.600  
R20  20760740.974   111016972.779  
R 5  20929656.144                  
G 9  20158141.953   105931832.975  
> 2019  9 16 15 57  2.0000000  0 12                     
G23  21196664.649                  
G 7  22728799.612                  
G 2  23925992.060                  
R 3  22538607.491                  
G 6  20851663.775   109576192.213  
G17  24805353.265   130352907.939  
R13  21693506.890                  
R14  21256487.893                  
R19  21796247.403   116595160.285  
R20  20760832.431   111017461.776  
R 5  20929317.496                  
G 9  20158148.793   105931870.526  
> 2019  9 16 15 57  3.0000000  0 12                     
G23  21197028.616                  
G 7  22728285.398                  
G 2  23925545.814                  
R 3  22539212.708                  
G 6  20851667.911   109576214.009  
G17  24805983.436   130356219.628  
R13  21693781.190                  
R14  21256059.673                  
R19  21797056.980   116599499.883  
R20  20760924.167   111017952.329  
R 5  20928983.447                  
G 9  20158156.349   105931909.076  
> 2019  9 16 15 57  4.0000000  0 12                     
G23  21197391.511                  
G 7  22727771.716                  
G 2  23925100.109                  
R 3  22539819.251                  
G 6  20851672.038   109576236.500  
G17  24806613.790   130359531.377  
R13  21694055.900                  
R14  21255630.965                  
R19  21797868.058   116603839.957  
R20  20761016.051   111018443.878  
R 5  20928645.706                  
G 9  20158163.949   105931948.095  
> 2019  9 16 15 57  5.0000000  0 13                     
G23  21197758.533                  
G 7  22727257.449                  
G22  24458997.007                  
G 2  23924656.132                  
R 3  22540423.805                  
G 6  20851676.060   109576259.512  
G17  24807243.726   130362842.948  
R13  21694330.217                  
R14  21255201.742                  
R19  21798680.261   116608180.186  
R20  20761107.865   111018936.117  
R 5  20928311.011                  
G 9  20158171.417   105931987.435  
> 2019  9 16 15 57  6.0000000  0 13                     
G23  21198124.080                  
G 7  22726745.390                  
G22  24459630.939                  
G 2  23924211.884                  
R 3  22541027.984                  
G 6  20851680.135   109576283.292  
G17  24807874.115   130366154.665  
R13  21694606.027                  
R14  21254773.566                  
R19  21799489.951   116612520.975  
R20  20761200.029   111019429.474  
R 5  20927973.951                  
G 9  20158178.895   105932027.338  
> 2019  9 16 15 57  7.0000000  0 12                     
G23  21198493.894                  
G 7  22726233.182                  
G 2  23923766.502                  
R 3  22541632.346                  
G 6  20851684.637   109576307.767  
G17  24808504.391   130369466.418  
R13  21694881.688                  
R14  21254345.146                  
R19  21800303.436   116616862.108  
R20  20761292.375   111019923.833  
R 5  20927636.377                  
G 9  20158186.643   105932067.706  
> 2019  9 16 15 57  8.0000000  0 13                     
G23  21198860.226                  
G 7  22725718.436                  
G 2  23923322.202                  
R 3  22542237.520                  
G 6  20851689.828   109576332.933  
G19  24324064.874                  
G17  24809134.684   130372778.203  
R13  21695158.326                  
R14  21253917.432                  
R19  21801115.159   116621203.682  
R20  20761385.036   111020419.077  
R 5  20927301.333                  
G 9  20158194.303   105932108.557  
> 2019  9 16 15 57  9.0000000  0 13                     
G23  21199228.199                  
G 7  22725204.884                  
G 2  23922877.030                  
R 3  22542841.733                  
G 6  20851694.871   109576358.877  
G19  24324726.350                  
G17  24809764.994   130376090.109  
R13  21695433.734                  
R14  21253489.430                  
R19  21801925.242   116625545.779  
R20  20761477.461   111020915.419  
R 5  20926964.483   111866574.8233 
G 9  20158202.435   105932149.969  
> 2019  9 16 15 57 10.0000000  0 13                     
G23  21199593.266                  
G 7  22724690.836                  
G 2  23922432.172                  
R 3  22543445.424                  
G 6  20851700.324   109576385.322  
G19  24325389.144                  
G17  24810395.340   130379401.846  
R13  21695712.388                  
R14  21253061.752                  
R19  21802738.012   116629888.141  
R20  20761570.540   111021412.532  
R 5  20926627.004   111864778.4152 
G 9  20158210.707   105932191.691  
> 2019  9 16 15 57 11.0000000  0 12                     
G23  21199959.721                  
G 7  22724179.553                  
G 2  23921987.627                  
R 3  22544049.254                  
G 6  20851705.690   109576412.578  
G19  24326052.192                  
G17  24811025.537   130382713.741  
R14  21252634.885                  
R19  21803550.433   116634231.000  
R20  20761663.838   111021910.751  
R 5  20926292.536   111862983.3953 
G 9  20158218.699   105932233.975  
> 2019  9 16 15 57 12.0000000  0 13                     
G23  21200326.620                  
G 7  22723668.803                  
G 2  23921544.767                  
R 3  22544653.895                  
G 6  20851710.620   109576440.541  
G19  24326716.164                  
G17  24811655.882   130386025.723  
R13  21696263.963                  
R14  21252206.918                  
R19  21804361.563   116638574.330  
R20  20761757.101   111022409.973  
R 5  20925958.059   111861187.6342 
G 9  20158226.883   105932276.780  
> 2019  9 16 15 57 13.0000000  0 13                     
G23  21200694.611                  
G 7  22723154.789                  
G 2  23921101.235                  
R 3  22545258.414                  
G 6  20851715.838   109576469.424  
G19  24327381.174                  
G17  24812286.141   130389338.004  
R13  21696540.759                  
R14  21251779.772                  
R19  21805182.299   116642918.264  
R20  20761850.869   111022910.353  
R 5  20925621.627   111859392.4002 
G 9  20158235.338   105932320.289  
> 2019  9 16 15 57 14.0000000  0 13                     
G23  21201060.725                  
G 7  22722641.596                  
G 2  23920656.621                  
R 3  22545864.678                  
G 6  20851721.439   109576498.781  
G19  24328045.103                  
G17  24812916.329   130392650.089  
R13  21696818.069                  
R14  21251352.084                  
R19  21805990.541   116647262.448  
R20  20761944.525   111023411.500  
R 5  20925284.812   111857597.1622 
G 9  20158243.731   105932364.075  
> 2019  9 16 15 57 15.0000000  0 13                     
G23  21201427.197                  
G 7  22722128.237                  
G 2  23920213.315                  
R 3  22546469.669                  
G 6  20851727.259   109576528.776  
G19  24328707.600                  
G17  24813546.692   130395962.095  
R13  21697097.071                  
R14  21250924.449                  
R19  21806802.560   116651607.023  
R20  20762038.468   111023913.621  
R 5  20924949.558   111855802.1132 
G 9  20158252.378   105932408.264  
> 2019  9 16 15 57 16.0000000  0 13                     
G23  21201794.009                  
G 7  22721616.422                  
G 2  23919768.640                  
R 3  22547075.776                  
G 6  20851733.480   109576559.649  
G19  24329368.387                  
G17  24814176.837   130399274.385  
R13  21697377.078                  
R14  21250496.832                  
R19  21807613.777   116655952.153  
R20  20762132.594   111024416.799  
R 5  20924611.801   111854007.5692 
G 9  20158260.998   105932453.141  
> 2019  9 16 15 57 17.0000000  0 13                     
G23  21202160.699                  
G 7  22721102.609                  
G 2  23919324.488                  
R 3  22547681.124                  
G 6  20851739.727   109576591.341  
G19  24330030.614                  
G17  24814807.514   130402586.824  
R13  21697656.464                  
R14  21250070.252                  
R19  21808424.724   116660297.837  
R20  20762226.939   111024921.118  
R 5  20924276.748   111852213.3242 
G 9  20158269.627   105932498.593  
> 2019  9 16 15 57 18.0000000  0 13                     
G23  21202529.614                  
G 7  22720590.026                  
G 2  23918880.799                  
R 3  22548285.451                  
G 6  20851746.297   109576623.513  
G19  24330695.223                  
G17  24815437.650   130405899.086  
R13  21697934.856                  
R14  21249642.617                  
R19  21809237.677   116664643.743  
R20  20762321.572   111025426.132  
R 5  20923941.032   111850419.2452 
G 9  20158278.466   105932544.320  
> 2019  9 16 15 57 19.0000000  0 13                     
G23  21202899.323                  
G 7  22720076.894                  
G 2  23918435.688                  
R 3  22548889.962                  
G 6  20851752.056   109576656.362  
G19  24331358.402                  
G17  24816068.004   130409211.385  
R13  21698213.606                  
R14  21249215.008                  
R19  21810050.351   116668990.022  
R20  20762416.204   111025932.097  
R 5  20923606.502   111848624.9021 
G 9  20158287.566   105932590.523  
> 2019  9 16 15 57 20.0000000  0 13                     
G23  21203271.092                  
G 7  22719563.657                  
G 2  23917989.617                  
R 3  22549496.575                  
G 6  20851758.486   109576690.024  
G19  24332022.993                  
G17  24816698.271   130412523.805  
R13  21698494.398                  
R14  21248788.228                  
R19  21810862.685   116673336.819  
R20  20762511.290   111026439.267  
R 5  20923270.071   111846831.349  
G 9  20158296.448   105932637.303  
> 2019  9 16 15 57 21.0000000  0 13                     
G23  21203639.780                  
G 7  22719050.873                  
G 2  23917544.968                  
R 3  22550103.607                  
G 6  20851765.353   109576724.436  
G19  24332686.293                  
G17  24817328.381   130415836.383  
R13  21698774.107                  
R14  21248361.457                  
R19  21811676.127   116677684.166  
R20  20762606.315   111026947.390  
R 5  20922933.186   111845038.205  
G 9  20158305.322   105932684.660  
> 2019  9 16 15 57 22.0000000  0 13                     
G23  21204008.276                  
G 7  22718541.021                  
G 2  23917100.650                  
R 3  22550708.606                  
G 6  20851772.394   109576759.702  
G19  24333349.000                  
G17  24817958.570   130419149.119  
R13  21699053.948                  
R14  21247936.344                  
R19  21812492.012   116682032.084  
R20  20762701.637   111027456.653  
R 5  20922595.777   111843245.431  
G 9  20158314.570   105932732.630  
> 2019  9 16 15 57 23.0000000  0 13                     
G23  21204375.402                  
G 7  22718029.189                  
G 2  23916654.727                  
R 3  22551312.296                  
G 6  20851779.679   109576795.419  
G19  24334012.562                  
G17  24818588.932   130422461.672  
R13  21699332.767                  
R14  21247509.058                  
R19  21813301.431   116686380.093  
R20  20762796.706   111027966.655  
R 5  20922258.037   111841452.646  
G 9  20158323.793   105932780.845  
> 2019  9 16 15 57 24.0000000  0 13                     
G23  21204742.668                  
G 7  22717516.380                  
G 2  23916208.883                  
R 3  22551916.580                  
G 6  20851786.459   109576831.842  
G19  24334675.906                  
G17  24819219.374   130425774.296  
R13  21699610.950                  
R14  21247083.045                  
R19  21814111.610   116690728.650  
R20  20762887.744   111028477.664  
R 5  20921923.481   111839660.161  
G 9  20158333.129   105932829.558  
> 2019  9 16 15 57 25.0000000  0 14                     
G22  24471631.226                  
G23  21205112.892                  
G 7  22717002.445                  
G 2  23915761.075                  
R 3  22552520.715                  
G 6  20851793.264   109576868.556  
G19  24335340.576                  
G17  24819849.938   130429086.501  
R13  21699889.900                  
R14  21246656.632                  
R19  21814924.747   116695077.192  
R20  20762984.706   111028989.165  
R 5  20921587.215   111837867.572  
G 9  20158342.290   105932878.340  
> 2019  9 16 15 57 26.0000000  0 14                     
G22  24472272.051                  
G23  21205480.848                  
G 7  22716490.874                  
G 2  23915314.106                  
R 3  22553125.321                  
G 6  20851800.471   109576906.068  
G19  24336006.110                  
G17  24820480.109   130432398.914  
R13  21700170.718                  
R14  21246229.965                  
R19  21815740.797   116699426.158  
R20  20763081.092   111029501.827  
R 5  20921253.061   111836075.331  
G 9  20158351.826   105932927.699  
> 2019  9 16 15 57 27.0000000  0 14                     
G22  24472916.583                  
G23  21205848.288                  
G 7  22715977.733                  
G 2  23914868.724                  
R 3  22553728.549                  
G 6  20851807.783   109576944.496  
G19  24336668.834                  
G17  24821110.358   130435711.514  
R13  21700452.495                  
R14  21245804.302                  
R19  21816553.690   116703775.830  
R20  20763177.339   111030015.590  
R 5  20920918.069   111834283.591  
G 9  20158361.590   105932977.772  
> 2019  9 16 15 57 28.0000000  0 15                     
G22  24473558.123                  
G23  21206217.474                  
G 7  22715467.270                  
G 2  23914422.103                  
R 3  22554334.805                  
G 6  20851815.391   109576983.647  
G 3  22528305.946                  
G19  24337332.597                  
G17  24821740.800   130439024.226  
R13  21700730.093                  
R14  21245378.665                  
R19  21817364.043   116708125.963  
R20  20763272.975   111030530.410  
R 5  20920584.011   111832492.048  
G 9  20158371.187   105933028.351  
> 2019  9 16 15 57 29.0000000  0 15                     
G22  24474197.429                  
G23  21206583.919                  
G 7  22714955.900                  
G 2  23913977.750                  
R 3  22554940.284                  
G 6  20851822.694   109577023.503  
G 3  22528875.870   118390041.3782 
G19  24337995.566                  
G17  24822371.101   130442336.967  
R13  21701010.108                  
R14  21244952.679                  
R19  21818179.291   116712476.476  
R20  20763369.588   111031046.173  
R 5  20920251.122   111830700.860  
G 9  20158380.663   105933079.426  
> 2019  9 16 15 57 30.0000000  0 15                     
G22  24474831.204                  
G23  21206950.697                  
G 7  22714441.416                  
G 2  23913535.457                  
R 3  22555543.189                  
G 6  20851829.936   109577064.087  
G 3  22529447.618   118393035.7832 
G19  24338657.836                  
G17  24823001.333   130445649.846  
R13  21701292.435                  
R14  21244527.644                  
R19  21818992.305   116716827.487  
R20  20763464.168   111031562.938  
R 5  20919916.008   111828909.977  
G 9  20158390.435   105933131.013  
> 2019  9 16 15 57 31.0000000  0 14                     
G22  24475462.971                  
G23  21207318.451                  
G 7  22713930.630                  
G 2  23913094.115                  
R 3  22556149.662                  
G 6  20851837.946   109577105.306  
G19  24339324.129   127903993.2203 
G17  24823631.592   130448962.656  
R13  21701573.881                  
R14  21244102.182                  
R19  21819805.416   116721178.815  
R20  20763560.851   111032080.660  
R 5  20919579.297   111827119.235  
G 9  20158400.696   105933183.014  
> 2019  9 16 15 57 32.0000000  0 14                     
G23  21207686.817                  
G 7  22713418.964                  
G 2  23912649.894                  
R 3  22556752.742                  
G 6  20851846.182   109577147.270  
G 3  22530586.201   118399029.3263 
G19  24339986.592   127907477.1642 
G17  24824262.181   130452275.554  
R13  21701854.184                  
R14  21243677.548                  
R19  21820617.697   116725530.655  
R20  20763657.953   111032599.382  
R 5  20919245.544   111825328.881  
G 9  20158410.302   105933235.557  
> 2019  9 16 15 57 33.0000000  0 14                     
G23  21208056.124                  
G 7  22712907.873                  
G 2  23912206.754                  
R 3  22557357.348                  
G 6  20851854.619   109577189.978  
G 3  22531156.291   118402024.6042 
G19  24340651.244   127910961.2902 
G17  24824892.771   130455588.543  
R13  21702135.787                  
R14  21243251.981                  
R19  21821428.670   116729882.975  
R20  20763755.316   111033119.146  
R 5  20918909.951   111823538.821  
G 9  20158420.249   105933288.637  
> 2019  9 16 15 57 34.0000000  0 14                     
G23  21208423.111                  
G 7  22712393.598                  
G 2  23911763.074                  
R 3  22557960.620                  
G 6  20851862.594   109577233.455  
G 3  22531722.655   118405020.2242 
G19  24341314.641   127914445.6932 
G17  24825523.361   130458901.654  
R13  21702416.945                  
R14  21242826.937                  
R19  21822245.244   116734235.830  
R20  20763852.549   111033639.920  
R 5  20918576.364   111821749.075  
G 9  20158430.501   105933342.262  
> 2019  9 16 15 57 35.0000000  0 15                     
G22  24477997.136                  
G23  21208788.030                  
G 7  22711880.823                  
G 2  23911319.934                  
R 3  22558566.133                  
G 6  20851870.429   109577277.586  
G 3  22532294.429   118408016.0232 
G19  24341975.716   127917930.2502 
G17  24826153.619   130462214.784  
R13  21702698.897                  
R14  21242402.129                  
R19  21823057.918   116738588.955  
R20  20763950.270   111034161.578  
R 5  20918241.232   111819959.513  
G 9  20158440.744   105933396.322  
> 2019  9 16 15 57 36.0000000  0 15                     
G22  24478628.642                  
G23  21209153.412                  
G 7  22711366.399                  
G 2  23910877.903                  
R 3  22559171.141                  
G 6  20851879.207   109577322.472  
G 3  22532866.709   118411012.2102 
G19  24342638.894   127921415.0402 
G17  24826783.974   130465527.967  
R13  21702981.267                  
R14  21241976.588                  
R19  21823871.412   116742942.667  
R20  20764048.236   111034684.392  
R 5  20917907.706   111818170.328  
G 9  20158451.162   105933450.938  
> 2019  9 16 15 57 37.0000000  0 15                     
G22  24479260.357                  
G23  21209519.709                  
G 7  22710852.386                  
G 2  23910434.283                  
R 3  22559776.262                  
G 6  20851888.167   109577368.102  
G 3  22533438.011   118414008.6152 
G19  24343299.385   127924899.6391 
G17  24827414.563   130468841.254  
R13  21703265.069                  
R14  21241552.155                  
R19  21824689.827   116747296.757  
R20  20764146.280   111035208.161  
R 5  20917573.142   111816381.491  
G 9  20158461.536   105933506.068  
> 2019  9 16 15 57 38.0000000  0 15                     
G22  24479889.961                  
G23  21209884.811                  
G 7  22710339.253                  
G 2  23909992.766                  
R 3  22560381.296                  
G 6  20851896.901   109577414.574  
G 3  22534010.998   118417005.5002 
G19  24343963.915   127928384.960  
G17  24828045.380   130472154.775  
R13  21703547.038                  
R14  21241126.667                  
R19  21825501.917   116751651.420  
R20  20764244.856   111035733.079  
R 5  20917236.414   111814593.010  
G 9  20158472.215   105933561.843  
> 2019  9 16 15 57 39.0000000  0 15                     
G22  24480524.058                  
G23  21210253.726                  
G 7  22709824.734                  
G 2  23909551.424                  
R 3  22560988.538                  
G 6  20851905.347   109577461.787  
G 3  22534579.203   118420002.7152 
G19  24344625.959   127931870.674  
G17  24828675.961   130475468.312  
R13  21703832.367                  
R14  21240703.647                  
R19  21826316.868   116756006.624  
R20  20764343.354   111036258.973  
R 5  20916903.978   111812804.834  
G 9  20158482.965   105933618.133  
> 2019  9 16 15 57 40.0000000  0 15                     
G22  24481158.286                  
G23  21210623.139                  
G 7  22709314.332                  
G 2  23909110.379                  
R 3  22561593.397                  
G 6  20851914.412   109577509.578  
G 3  22535148.918   118423000.1142 
G19  24345290.010   127935356.285  
G17  24829306.464   130478781.841  
R13  21704117.512                  
R14  21240278.263                  
R19  21827126.445   116760362.009  
R20  20764441.407   111036785.719  
R 5  20916567.093   111811016.852  
G 9  20158493.609   105933674.795  
> 2019  9 16 15 57 41.0000000  0 15                     
G22  24481790.342                  
G23  21210989.873                  
G 7  22708803.582                  
G 2  23908668.827                  
R 3  22562198.623                  
G 6  20851923.478   109577557.977  
G 3  22535719.688   118425997.5922 
G19  24345950.902   127938842.191  
G17  24829936.940   130482095.231  
R13  21704399.944                  
R14  21239853.979   113220315.2623 
R19  21827941.431   116764717.797  
R20  20764544.232   111037313.334  
R 5  20916234.317   111809229.040  
G 9  20158504.568   105933731.840  
> 2019  9 16 15 57 42.0000000  0 15                     
G22  24482420.801                  
G23  21211356.746                  
G 7  22708289.594                  
G 2  23908226.769                  
R 3  22562803.849                  
G 6  20851933.180   109577607.060  
G 3  22536289.866   118428995.3402 
G19  24346612.283   127942328.130  
G17  24830567.608   130485408.735  
R13  21704682.437                  
R14  21239429.363   113218054.7632 
R19  21828759.820   116769074.006  
R20  20764640.164   111037841.892  
R 5  20915901.236   111807441.451  
G 9  20158515.719   105933789.358  
> 2019  9 16 15 57 43.0000000  0 15                     
G22  24483054.392                  
G23  21211726.760                  
G 7  22707776.619                  
G 2  23907786.169                  
R 3  22563408.368                  
G 6  20851942.132   109577656.949  
G 3  22536860.383   118431993.4902 
G19  24347272.791   127945814.439  
G17  24831198.137   130488722.352  
R13  21704965.174                  
R14  21239005.069   113215794.9582 
R19  21829570.880   116773430.718  
R20  20764744.019   111038371.620  
R 5  20915564.831   111805654.271  
G 9  20158526.782   105933847.475  
> 2019  9 16 15 57 44.0000000  0 15                     
G22  24483687.809                  
G23  21212096.373                  
G 7  22707265.371                  
G 2  23907343.317                  
R 3  22564013.219                  
G 6  20851952.009   109577707.343  
G 3  22537430.961   118434991.7002 
G19  24347933.910   127949300.738  
G17  24831828.770   130492035.808  
R13  21705249.386                  
R14  21238581.151   113213535.7452 
R19  21830388.711   116777787.706  
R20  20764836.715   111038902.000  
R 5  20915229.534   111803867.147  
G 9  20158538.046   105933905.882  
> 2019  9 16 15 57 45.0000000  0 14                     
G23  21212464.015                  
G 7  22706754.665                  
G 2  23906899.218                  
R 3  22564620.600                  
G 6  20851961.833   109577758.478  
G 3  22538001.793   118437990.2322 
G19  24348595.692   127952787.248  
G17  24832459.413   130495349.335  
R13  21705532.786                  
R14  21238158.577   113211277.2442 
R19  21831204.221   116782145.124  
R20  20764940.500   111039433.509  
R 5  20914894.184   111802080.398  
G 9  20158549.066   105933964.817  
> 2019  9 16 15 57 46.0000000  0 14                     
G23  21212831.970                  
G 7  22706244.429                  
G 2  23906459.089                  
R 3  22565224.395                  
G 6  20851971.736   109577810.251  
G 3  22538572.494   118440989.0262 
G19  24349258.250   127956273.913  
G17  24833090.098   130498662.852  
R13  21705819.048                  
R14  21237735.278   113209019.3812 
R19  21832015.560   116786502.846  
R20  20765034.321   111039965.947  
R 5  20914561.034   111800293.749  
G 9  20158560.234   105934024.178  
> 2019  9 16 15 57 47.0000000  0 14                     
G23  21213204.026                  
G 7  22705733.364   119319433.4133 
G 2  23906015.696                  
R 3  22565831.156                  
G 6  20851980.994   109577862.613  
G 3  22539143.177   118443987.9002 
G19  24349921.638   127959760.732  
G17  24833720.426   130501976.304  
R13  21706104.237                  
R14  21237311.403   113206761.5701 
R19  21832831.052   116790860.950  
R20  20765134.503   111040499.158  
R 5  20914223.372   111798507.275  
G 9  20158571.638   105934083.899  
> 2019  9 16 15 57 48.0000000  0 14                     
G23  21213572.156                  
G 7  22705224.691   119316749.7962 
G 2  23905574.389                  
R 3  22566436.330                  
G 6  20851991.228   109577915.672  
G 3  22539713.790   118446987.0612 
G19  24350585.270   127963247.644  
G17  24834350.981   130505289.813  
R13  21706387.812                  
R14  21236888.227   113204504.938  
R19  21833644.651   116795219.413  
R20  20765236.438   111041033.403  
R 5  20913889.558   111796721.068  
G 9  20158583.286   105934144.107  
> 2019  9 16 15 57 49.0000000  0 14                     
G23  21213939.814                  
G 7  22704713.844   119314066.4622 
G 2  23905134.861                  
R 3  22567042.742                  
G 6  20852001.498   109577969.329  
G 3  22540284.473   118449985.9261 
G19  24351247.959   127966734.701  
G17  24834981.344   130508603.254  
R13  21706673.655                  
R14  21236465.216   113202248.972  
R19  21834459.916   116799578.217  
R20  20765334.849   111041568.540  
R 5  20913552.865   111794935.072  
G 9  20158594.725   105934204.704  
> 2019  9 16 15 57 50.0000000  0 14                     
G23  21214308.764                  
G 7  22704204.001   119311383.6952 
G 2  23904694.008                  
R 3  22567649.242                  
G 6  20852011.715   109578023.900  
G 3  22540855.383   118452985.729  
G19  24351912.045   127970222.225  
G17  24835611.943   130511916.973  
R13  21706961.566                  
R14  21236042.947   113199993.949  
R19  21835274.449   116803937.672  
R20  20765436.680   111042104.839  
R 5  20913217.061   111793149.590  
G 9  20158606.294   105934265.995  
> 2019  9 16 15 57 51.0000000  0 14                     
G23  21214679.424                  
G 7  22703694.612   119308701.3622 
G 2  23904251.950                  
R 3  22568255.027                  
G 6  20852021.836   109578079.282  
G 3  22541426.712   118455985.993  
G19  24352576.444   127973709.949  
G17  24836242.471   130515230.818  
R13  21707248.518                  
R14  21235619.509   113197739.648  
R19  21836089.627   116808297.669  
R20  20765537.481   111042642.183  
R 5  20912881.712   111791364.351  
G 9  20158618.117   105934327.880  
> 2019  9 16 15 57 52.0000000  0 14                     
G23  21215049.500                  
G 7  22703186.671   119306019.1152 
G 2  23903811.603                  
R 3  22568861.797                  
G 6  20852032.891   109578135.184  
G 3  22541997.945   118458986.237  
G19  24353241.009   127977197.756  
G17  24836873.192   130518544.543  
R13  21707535.111                  
R14  21235197.179   113195485.913  
R19  21836904.631   116812657.846  
R20  20765639.713   111043180.388  
R 5  20912547.139   111789579.292  
G 9  20158629.931   105934390.074  
> 2019  9 16 15 57 53.0000000  0 14                     
G23  21215420.404                  
G 7  22702676.898   119303336.8142 
G 2  23903371.752                  
R 3  22569465.496                  
G 6  20852043.474   109578191.473  
G 3  22542568.515   118461986.546  
G19  24353907.390   127980685.443  
G17  24837503.782   130521857.971  
R13  21707821.862                  
R14  21234774.142                  
R19  21837719.835   116817018.128  
R20  20765742.634   111043719.230  
R 5  20912213.499   111787794.231  
G 9  20158641.709   105934452.441  
> 2019  9 16 15 57 54.0000000  0 14                     
G23  21215792.181                  
G 7  22702167.412   119300654.8102 
G 2  23902932.888                  
R 3  22570070.870                  
G 6  20852053.648   109578248.376  
G 3  22543139.408   118464986.914  
G19  24354571.405   127984173.243  
G17  24838134.476   130525171.407  
R13  21708106.885                  
R14  21234351.506   113190979.859  
R19  21838537.430   116821378.833  
R20  20765846.376   111044258.942  
R 5  20911879.738   111786009.241  
G 9  20158653.654   105934515.219  
> 2019  9 16 15 57 55.0000000  0 14                     
G23  21216163.164                  
G 7  22701660.771   119297972.4851 
G 2  23902493.692                  
R 3  22570676.105                  
G 6  20852064.554   109578305.897  
G 3  22543710.387   118467987.532  
G19  24355235.779   127987661.133  
G17  24838764.778   130528484.745  
R13  21708393.819                  
R14  21233929.438   113188727.702  
R19  21839349.188   116825739.784  
R20  20765941.837   111044799.461  
R 5  20911547.337   111784224.455  
G 9  20158665.843   105934578.395  
