     3.02           OBSERVATION DATA    M: Mixed            RINEX VERSION / TYPE
CONVBIN 2.4.2                           20190917 151858 UTC PGM / RUN BY / DATE 
log: ./output_ubx/raw_obs_test_lollo_17-9-2019_17:16.ubx    COMMENT             
format: u-blox                                              COMMENT             
                                                            MARKER NAME         
                                                            MARKER NUMBER       
                                                            MARKER TYPE         
                                                            OBSERVER / AGENCY   
                                                            REC # / TYPE / VERS 
                                                            ANT # / TYPE        
  4508535.3272   708389.7427  4440697.7443                  APPROX POSITION XYZ 
        0.0000        0.0000        0.0000                  ANTENNA: DELTA H/E/N
G    2 C1C L1C                                              SYS / # / OBS TYPES 
R    2 C1C L1C                                              SYS / # / OBS TYPES 
E    2 C1C L1C                                              SYS / # / OBS TYPES 
J    2 C1C L1C                                              SYS / # / OBS TYPES 
S    2 C1C L1C                                              SYS / # / OBS TYPES 
C    2 C1I L1I                                              SYS / # / OBS TYPES 
  2019     9    17    15    17   14.9940000     GPS         TIME OF FIRST OBS   
  2019     9    17    15    19   15.9940000     GPS         TIME OF LAST OBS    
G                                                           SYS / PHASE SHIFT   
R                                                           SYS / PHASE SHIFT   
E                                                           SYS / PHASE SHIFT   
J                                                           SYS / PHASE SHIFT   
S                                                           SYS / PHASE SHIFT   
C                                                           SYS / PHASE SHIFT   
  0                                                         GLONASS SLOT / FRQ #
 C1C    0.000 C1P    0.000 C2C    0.000 C2P    0.000        GLONASS COD/PHS/BIS 
                                                            END OF HEADER       
> 2019  9 17 15 17 14.9940000  0 10                     
G23  18939086.267    99525487.683  
G 9  18731881.648    98436742.970  
G 3  19793528.657                  
G 6  19508974.710   102520405.776  
G19  21403295.041   112475021.971  
G17  21885670.782   115009962.451  
G 7  22308803.025                  
R 5  17807857.918    95193167.120  
R20  18644385.294    99699881.777  
R21  19455908.973   104112442.314  
> 2019  9 17 15 17 15.9940000  0 10                     
G23  18939249.950    99526381.602  
G 9  18731639.980    98435474.980  
G 3  19793935.579                  
G 6  19508668.083   102518794.799  
G19  21403774.015   112477543.889  
G17  21886188.076   115012678.783  
G 7  22308159.330                  
R 5  17807867.717    95193218.462  
R20  18644845.421    99702343.066  
R21  19455541.638   104110483.079  
> 2019  9 17 15 17 16.9940000  0 10                     
G23  18939426.075    99527275.869  
G 9  18731400.354    98434207.452  
G 3  19794341.035                  
G 6  19508361.701   102517184.337  
G19  21404254.262   112480066.192  
G17  21886705.083   115015395.329  
G 7  22307514.806                  
R 5  17807877.340    95193270.165  
R20  18645305.845    99704805.100  
R21  19455177.329   104108524.540  
> 2019  9 17 15 17 17.9940000  0 10                     
G23  18939589.793    99528170.510  
G 9  18731164.209    98432940.288  
G 3  19794747.023                  
G 6  19508055.476   102515574.311  
G19  21404734.955   112482588.846  
G17  21887222.202   115018112.004  
G 7  22306868.703                  
R 5  17807887.200    95193322.150  
R20  18645766.252    99707267.831  
R21  19454809.976   104106566.667  
> 2019  9 17 15 17 18.9940000  0 10                     
G23  18939760.979    99529065.169  
G 9  18730924.233    98431673.302  
G 3  19795151.580                  
G 6  19507749.085   102513964.601  
G19  21405215.708   112485111.675  
G17  21887739.200   115020828.675  
G 7  22306226.640                  
R 5  17807897.173    95193374.244  
R20  18646226.711    99709731.099  
R21  19454446.497   104104609.427  
> 2019  9 17 15 17 19.9940000  0 10                     
G23  18939927.708    99529960.150  
G 9  18730686.692    98430406.687  
G 3  19795558.240                  
G 6  19507442.816   102512355.286  
G19  21405692.623   112487634.742  
G17  21888256.215   115023545.488  
G 7  22305580.458                  
R 5  17807906.639    95193426.563  
R20  18646687.405    99712195.017  
R21  19454081.639   104102652.894  
> 2019  9 17 15 17 20.9940000  0 10                     
G23  18940090.082    99530855.582  
G 9  18730448.846    98429140.737  
G 3  19795963.678                  
G 6  19507137.001   102510746.678  
G19  21406172.477   112490158.418  
G17  21888773.213   115026262.693  
G 7  22304934.303                  
R 5  17807916.507    95193479.365  
R20  18647148.091    99714659.813  
R21  19453713.945   104100697.288  
> 2019  9 17 15 17 21.9940000  0 10                     
G23  18940264.488    99531751.466  
G 9  18730208.871    98427875.185  
G 3  19796369.378                  
G 6  19506830.942   102509138.639  
G19  21406654.008   112492682.571  
G17  21889290.175   115028980.156  
G 7  22304288.654                  
R 5  17807926.480    95193532.566  
R20  18647609.396    99717125.432  
R21  19453348.643   104098742.551  
> 2019  9 17 15 17 22.9940000  0 10                     
G23  18940435.186    99532647.554  
G 9  18729972.917    98426609.999  
G 3  19796776.570                  
G 6  19506524.874   102507531.035  
G19  21407133.888   112495206.990  
G17  21889807.243   115031697.752  
G 7  22303642.585                  
R 5  17807936.802    95193586.038  
R20  18648070.492    99719591.692  
R21  19452982.816   104096788.563  
> 2019  9 17 15 17 23.9940000  0 10                     
G23  18940607.306    99533544.453  
G 9  18729737.976    98425345.674  
G 3  19797183.178                  
G 6  19506219.190   102505924.323  
G19  21407614.092   112497732.199  
G17  21890324.572   115034415.954  
G 7  22302998.969                  
R 5  17807947.080    95193640.219  
R20  18648531.867    99722059.093  
R21  19452617.958   104094835.650  
> 2019  9 17 15 17 24.9940000  0 11                     
G23  18940779.470    99534441.933  
G 9  18729501.194    98424082.030  
G 3  19797588.285                  
G 6  19505913.724   102504318.427  
G19  21408095.614   112500258.095  
G17  21890841.814   115037134.683  
G 7  22302354.375                  
G 2  23367852.464                  
R 5  17807957.210    95193695.035  
R20  18648993.216    99724527.537  
R21  19452254.305   104092883.773  
> 2019  9 17 15 17 25.9940000  0 11                     
G23  18940950.683    99535339.790  
G 9  18729263.810    98422818.869  
G 3  19797990.757                  
G 6  19505608.188   102502713.049  
G19  21408572.589   112502784.410  
G17  21891359.152   115039853.605  
G 7  22301710.986                  
G 2  23367257.185                  
R 5  17807967.593    95193750.180  
R20  18649454.905    99726996.710  
R21  19451889.639   104090932.813  
> 2019  9 17 15 17 26.9940000  0 10                     
G23  18941126.616    99536238.267  
G 9  18729022.762    98421556.369  
G 3  19798396.745                  
G 6  19505302.940   102501108.462  
G19  21409051.728   112505311.379  
G17  21891876.908   115042573.004  
G 7  22301069.010                  
R 5  17807978.508    95193805.942  
R20  18649916.865    99729466.890  
R21  19451526.281   104088982.893  
> 2019  9 17 15 17 27.9940000  0 10                     
G23  18941300.315    99537137.164  
G 9  18728778.371    98420294.469  
G 3  19798805.237                  
G 6  19504997.657   102499504.489  
G19  21409533.555   112507838.850  
G17  21892394.429   115045292.775  
G 7  22300425.254                  
R 5  17807988.682    95193862.168  
R20  18650379.042    99731937.967  
R21  19451161.476   104087033.880  
> 2019  9 17 15 17 28.9940000  0 10                     
G23  18941474.137    99538036.232  
G 9  18728541.328    98419032.711  
G 3  19799209.113                  
G 6  19504692.566   102497900.811  
G19  21410016.394   112510366.513  
G17  21892912.212   115048012.483  
G 7  22299782.981                  
R 5  17807999.518    95193918.462  
R20  18650841.307    99734409.548  
R21  19450796.836   104085114.8041 
> 2019  9 17 15 17 29.9940000  0 10                     
G23  18941652.522    99538935.627  
G 9  18728300.078    98417771.473  
G 3  19799613.557                  
G 6  19504387.475   102496297.672  
G19  21410498.622   112512894.537  
G17  21893429.568   115050732.449  
G 7  22299139.321                  
R 5  17808010.137    95193975.119  
R20  18651303.494    99736881.891  
R21  19450434.727   104083167.174  
> 2019  9 17 15 17 30.9940000  0 10                     
G23  18941825.707    99539835.616  
G 9  18728061.464    98416510.821  
G 3  19800018.036                  
G 6  19504082.498   102494695.245  
G19  21410978.224   112515423.192  
G17  21893947.185   115053452.837  
G 7  22298495.364                  
R 5  17808020.956    95194032.297  
R20  18651765.637    99739355.136  
R21  19450070.480   104081220.9433 
> 2019  9 17 15 17 31.9940000  0 10                     
G23  18941996.317    99540735.936  
G 9  18727818.618    98415250.723  
G 3  19800426.440                  
G 6  19503777.913   102493093.432  
G19  21411458.018   112517952.336  
G17  21894464.741   115056173.523  
G 7  22297852.943                  
R 5  17808032.010    95194089.902  
R20  18652228.259    99741829.254  
R21  19449707.035   104079275.1392 
> 2019  9 17 15 17 32.9940000  0 10                     
G23  18942168.490    99541636.461  
G 9  18727579.105    98413990.818  
G 3  19800834.112                  
G 6  19503473.293   102491491.951  
G19  21411940.080   112520481.647  
G17  21894982.489   115058894.259  
G 7  22297207.503                  
R 5  17808043.170    95194147.664  
R20  18652691.240    99744303.906  
R21  19449343.076                  
> 2019  9 17 15 17 33.9940000  0 10                     
G23  18942340.165    99542537.588  
G 9  18727341.198    98412731.524  
G 3  19801241.409                  
G 6  19503168.543   102489891.122  
G19  21412421.374   112523011.507  
G17  21895500.219   115061615.291  
G 7  22296560.031                  
R 5  17808054.329    95194205.863  
R20  18653154.072    99746779.449  
R21  19448979.012                  
> 2019  9 17 15 17 34.9940000  0 11                     
G23  18942509.842                  
G 9  18727101.973    98411472.940  
G 3  19801647.406                  
G 6  19502864.263   102488291.085  
G22  21568167.211                  
G19  21412903.698   112525542.065  
G17  21896018.194   115064336.857  
G 7  22295917.130                  
R 5  17808065.201    95194264.706  
R20  18653617.401    99749256.004  
R21  19448614.023                  
> 2019  9 17 15 17 35.9940000  0 11                     
G23  18942681.108                  
G 9  18726862.748    98410215.047  
G 3  19802053.525                  
G 6  19502560.228   102486691.820  
G22  21568675.021                  
G19  21413387.462   112528073.347  
G17  21896536.317   115067058.893  
G 7  22295273.068                  
R 5  17808076.692    95194324.129  
R20  18654080.679    99751733.565  
R21  19448249.384                  
> 2019  9 17 15 17 36.9940000  0 11                     
G23  18942850.078                  
G 9  18726623.156    98408957.679  
G 3  19802457.271   104062614.9372 
G 6  19502255.687   102485093.202  
G22  21569182.256                  
G19  21413869.053   112530604.913  
G17  21897054.309   115069781.252  
G 7  22294626.625                  
R 5  17808087.598    95194384.004  
R20  18654544.104    99754212.017  
R21  19447885.887                  
> 2019  9 17 15 17 37.9940000  0 11                     
G23  18943021.334                  
G 9  18726384.001    98407700.931  
G 3  19802864.384   104064745.6142 
G 6  19501951.617   102483495.231  
G22  21569688.975                  
G19  21414350.740   112533137.156  
G17  21897572.328   115072503.981  
G 7  22293981.194                  
R 5  17808098.792    95194444.372  
R20  18655007.521    99756691.370  
R21  19447521.003                  
> 2019  9 17 15 17 38.9940000  0 11                     
G23  18943189.825                  
G 9  18726145.046    98406444.605  
G 3  19803269.221   104066876.4602 
G 6  19501647.206   102481897.806  
G22  21570198.207                  
G19  21414830.508   112535669.763  
G17  21898090.512   115075226.949  
G 7  22293338.328                  
R 5  17808110.240    95194505.061  
R20  18655471.452    99759171.441  
R21  19447155.482                  
> 2019  9 17 15 17 39.9940000  0 11                     
G23  18943357.382                  
G 9  18725905.813    98405188.214  
G 3  19803675.278   104069007.0842 
G 6  19501343.224   102480300.402  
G22  21570706.139                  
G19  21415312.727   112538202.331  
G17  21898608.740   115077949.617  
G 7  22292693.900                  
R 5  17808121.678    95194565.607  
R20  18655935.637    99761651.767  
R21  19446791.636                  
> 2019  9 17 15 17 40.9940000  0 11                     
G23  18943525.175                  
G 9  18725666.666    98403932.005  
G 3  19804079.042   104071137.7892 
G 6  19501039.171   102478703.219  
G22  21571214.866                  
G19  21415794.213   112540734.916  
G17  21899127.168   115080672.192  
G 7  22292050.755                  
R 5  17808132.794    95194626.189  
R20  18656399.603    99764132.542  
R21  19446428.846                  
> 2019  9 17 15 17 41.9940000  0 11                     
G23  18943689.617                  
G 9  18725428.113    98402676.460  
G 3  19804483.546   104073268.8472 
G 6  19500735.424   102477106.819  
G22  21571723.487                  
G19  21416273.972   112543268.283  
G17  21899645.414   115083395.296  
G 7  22291407.025                  
R 5  17808144.137    95194687.353  
R20  18656863.796    99766614.340  
R21  19446064.512                  
> 2019  9 17 15 17 42.9940000  0 11                     
G23  18943854.992                  
G 9  18725189.542    98401421.493  
G 3  19804886.638   104075400.3512 
G 6  19500431.825   102475511.078  
G22  21572232.990                  
G19  21416756.218   112545802.057  
G17  21900163.668   115086118.714  
G 7  22290763.339                  
R 5  17808155.654    95194748.988  
R20  18657328.382    99769097.004  
R21  19445699.252                  
> 2019  9 17 15 17 43.9940000  0 11                     
G23  18944020.726                  
G 9  18724950.849    98400167.508  
G 3  19805292.041   104077532.6102 
G 6  19500128.331   102473916.396  
G22  21572741.690                  
G19  21417237.111   112548336.811  
G17  21900682.131   115088842.910  
G 7  22290121.153                  
R 5  17808167.136    95194811.560  
R20  18657793.265    99771581.031  
R21  19445336.707                  
> 2019  9 17 15 17 44.9940000  0 11                     
G23  18944190.202                  
G 9  18724712.436    98398914.686  
G 3  19805696.267   104079665.8422 
G 6  19499825.308   102472322.972  
G22  21573252.824                  
G19  21417719.810   112550872.743  
G17  21901200.752   115091568.039  
G 7  22289478.444                  
R 5  17808178.967    95194875.210  
R20  18658257.938    99774066.476  
R21  19444974.711                  
> 2019  9 17 15 17 45.9940000  0 11                     
G23  18944354.775                  
G 9  18724474.048    98397662.724  
G 3  19806100.920   104081799.7942 
G 6  19499521.831   102470730.526  
G22  21573764.883                  
G19  21418203.478   112553409.432  
G17  21901719.808   115094293.861  
G 7  22288836.547                  
R 5  17808190.842    95194939.674  
R20  18658723.021    99776553.175  
R21  19444615.323                  
> 2019  9 17 15 17 46.9940000  0 11                     
G23  18944524.505                  
G 9  18724235.984    98396411.116  
G 3  19806506.768   104083933.8122 
G 6  19499218.878   102469138.444  
G22  21574272.388                  
G19  21418687.939   112555946.440  
G17  21902238.490   115097019.722  
G 7  22288193.585                  
R 5  17808202.691    95195004.272  
R20  18659188.270    99779040.450  
R21  19444253.144                  
> 2019  9 17 15 17 47.9940000  0 11                     
G23  18944692.708                  
G 9  18723997.762    98395159.724  
G 3  19806913.096   104086067.9322 
G 6  19498915.671   102467546.716  
G22  21574781.420                  
G19  21419170.010   112558483.635  
G17  21902757.416   115099745.653  
G 7  22287548.537                  
R 5  17808214.540    95195069.005  
R20  18659653.598    99781528.278  
R21  19443894.917                  
> 2019  9 17 15 17 48.9940000  0 12                     
G23  18944862.175                  
G 9  18723759.418    98393908.540  
G 3  19807317.924                  
G 6  19498612.875   102465955.258  
G22  21575292.249                  
G19  21419652.945   112561020.990  
G17  21903276.315   115102471.541  
G 7  22286905.261                  
G 2  23353564.671                  
R 5  17808226.546    95195133.826  
R20  18660118.934    99784016.566  
R21  19443530.600                  
> 2019  9 17 15 17 49.9940000  0 12                     
G23  18945037.245                  
G 9  18723521.197    98392657.255  
G 3  19807722.856                  
G 6  19498309.678   102464363.796  
G22  21575803.706                  
G19  21420136.246   112563558.189  
G17  21903795.128   115105197.138  
G 7  22286259.062                  
G 2  23352970.936                  
R 5  17808238.403    95195198.476  
R20  18660584.069    99786505.121  
R21  19443171.641                  
> 2019  9 17 15 17 50.9940000  0 12                     
G23  18945208.658                  
G 9  18723283.036    98391406.287  
G 3  19808126.881                  
G 6  19498006.925   102462772.731  
G22  21576316.175                  
G19  21420618.666   112566095.658  
G17  21904314.028   115107922.807  
G 7  22285612.863                  
G 2  23352376.276                  
R 5  17808250.129    95195263.305  
R20  18661049.606    99788994.260  
R21  19442812.515                  
> 2019  9 17 15 17 51.9940000  0 12                     
G23  18945380.255                  
G 9  18723044.989    98390156.577  
G 3  19808533.471                  
G 6  19497704.330   102461183.007  
G22  21576824.151                  
G19  21421102.413   112568634.410  
G17  21904832.997   115110649.512  
G 7  22284966.568                  
G 2  23351781.424                  
R 5  17808262.188    95195329.351  
R20  18661515.379    99791484.988  
R21  19442451.976                  
> 2019  9 17 15 17 52.9940000  0 12                     
G23  18945549.740                  
G 9  18722807.029    98388908.072  
G 3  19808938.561                  
G 6  19497401.900   102459594.563  
G22  21577334.718                  
G19  21421585.025   112571174.223  
G17  21905352.028   115113377.180  
G 7  22284324.566                  
G 2  23351187.532                  
R 5  17808274.324    95195396.464  
R20  18661981.439    99793977.232  
R21  19442095.311                  
> 2019  9 17 15 17 53.9940000  0 12                     
G23  18945719.304                  
G 9  18722569.270    98387659.960  
G 3  19809344.933                  
G 6  19497099.898   102458006.602  
G22  21577843.645                  
G19  21422069.443   112573714.504  
G17  21905871.268   115116105.052  
G 7  22283680.243                  
G 2  23350593.719                  
R 5  17808286.923    95195463.876  
R20  18662448.110    99796470.226  
R21  19441735.592                  
> 2019  9 17 15 17 54.9940000  0 12                     
G23  18945890.325                  
G 9  18722331.860    98386412.209  
G 3  19809749.804                  
G 6  19496797.939   102456419.113  
G22  21578350.609                  
G19  21422554.131   112576254.982  
G17  21906390.176   115118833.062  
G 7  22283037.848                  
G 2  23349998.928                  
R 5  17808299.487    95195531.545  
R20  18662914.590    99798963.839  
R21  19441376.589   104034702.2483 
> 2019  9 17 15 17 55.9940000  0 12                     
G23  18946061.843                  
G 9  18722094.083    98385164.458  
G 3  19810153.881                  
G 6  19496495.736   102454831.657  
G22  21578858.567                  
G19  21423038.235   112578795.499  
G17  21906909.302   115121560.810  
G 7  22282393.621                  
G 2  23349403.658                  
R 5  17808312.261    95195599.092  
R20  18663380.650    99801457.725  
R21  19441016.879   104032777.3332 
> 2019  9 17 15 17 56.9940000  0 12                     
G23  18946234.513                  
G 9  18721856.298    98383916.864  
G 3  19810560.044                  
G 6  19496193.603   102453244.543  
G22  21579366.543                  
G19  21423524.695   112581336.116  
G17  21907428.158   115124288.594  
G 7  22281750.816                  
G 2  23348809.295                  
R 5  17808324.869    95195666.768  
R20  18663846.806    99803952.147  
R21  19440658.635   104030852.9662 
> 2019  9 17 15 17 57.9940000  0 12                     
G23  18946404.766                  
G 9  18721618.669    98382669.603  
G 3  19810964.322                  
G 6  19495891.749   102451657.763  
G22  21579879.187                  
G19  21424008.310   112583877.014  
G17  21907947.643   115127016.426  
G 7  22281108.133                  
G 2  23348214.260                  
R 5  17808337.555    95195734.596  
R20  18664313.286    99806447.121  
R21  19440300.452   104028929.1862 
> 2019  9 17 15 17 58.9940000  0 12                     
G23  18946578.762                  
G 9  18721381.023    98381422.877  
G 3  19811368.835                  
G 6  19495589.852   102450071.612  
G22  21580387.433                  
G19  21424490.931   112586418.447  
G17  21908466.804   115129744.580  
G 7  22280464.796                  
G 2  23347618.439                  
R 5  17808350.259    95195802.855  
R20  18664779.922    99808942.963  
R21  19439946.849   104027006.3052 
> 2019  9 17 15 17 59.9940000  0 12                     
G23  18946751.310                  
G 9  18721143.744    98380176.751  
G 3  19811776.394                  
G 6  19495288.338   102448486.153  
G22  21580896.412                  
G19  21424973.368   112588960.389  
G17  21908986.131   115132473.108  
G 7  22279821.424                  
G 2  23347020.988                  
R 5  17808363.059    95195871.598  
R20  18665246.436    99811439.710  
R21  19439582.489   104025084.4812 
> 2019  9 17 15 18  0.9940000  0 12                     
G23  18946924.163                  
G 9  18720906.238    98378930.731  
G 3  19812181.396                  
G 6  19494987.078   102446900.903  
G22  21581403.699                  
G19  21425459.112   112591502.411  
G17  21909505.380   115135201.520  
G 7  22279176.717                  
G 2  23346427.479                  
R 5  17808376.103    95195940.363  
R20  18665713.229    99813936.917  
R21  19439232.123   104023162.5771 
> 2019  9 17 15 18  1.9940000  0 12                     
G23  18947098.386                  
G 9  18720668.645    98377685.030  
G 3  19812586.564                  
G 6  19494685.660   102445316.035  
G22  21581911.683                  
G19  21425944.368   112594044.655  
G17  21910024.664   115137930.032  
G 7  22278535.640                  
G 2  23345832.654                  
R 5  17808389.094    95196009.328  
R20  18666180.049    99816434.682  
R21  19438872.963   104021241.801  
> 2019  9 17 15 18  2.9940000  0 12                     
G23  18947275.139                  
G 9  18720431.487    98376439.367  
G 3  19812992.534                  
G 6  19494383.963   102443731.295  
G22  21582419.380                  
G19  21426429.868   112596586.941  
G17  21910544.043   115140658.381  
G 7  22277893.489                  
G 2  23345238.605                  
R 5  17808401.763    95196078.272  
R20  18666647.025    99818932.870  
R21  19438513.724   104019321.399  
> 2019  9 17 15 18  3.9940000  0 12                     
G23  18947451.744                  
G 9  18720194.025    98375193.432  
G 3  19813396.995                  
G 6  19494082.424   102442146.366  
G22  21582923.735                  
G19  21426913.178   112599128.937  
G17  21911063.030   115143386.216  
G 7  22277250.553                  
G 2  23344643.640                  
R 5  17808414.694    95196146.806  
R20  18667114.080    99821431.016  
R21  19438160.723   104017401.090  
> 2019  9 17 15 18  4.9940000  0 12                     
G23  18947626.621                  
G 9  18719956.588    98373947.358  
G 3  19813805.732                  
G 6  19493780.989   102440561.399  
G22  21583430.594                  
G19  21427397.073   112601670.703  
G17  21911581.965   115146113.696  
G 7  22276608.141                  
G 2  23344045.420                  
R 5  17808427.886    95196215.142  
R20  18667581.362    99823929.370  
R21  19437799.321   104015480.917  
> 2019  9 17 15 18  5.9940000  0 12                     
G23  18947803.671                  
G 9  18719719.213    98372701.955  
G 3  19814211.371                  
G 6  19493479.824   102438977.160  
G22  21583941.624                  
G19  21427880.260   112604213.148  
G17  21912100.707   115148841.612  
G 7  22275963.486                  
G 2  23343447.855                  
R 5  17808440.442    95196284.006  
R20  18668048.819    99826428.670  
R21  19437441.242   104013561.910  
> 2019  9 17 15 18  6.9940000  0 12                     
G23  18947981.568                  
G 9  18719482.004    98371457.149  
G 3  19814619.243                  
G 6  19493178.563   102437393.646  
G22  21584449.442                  
G19  21428362.951   112606756.098  
G17  21912619.895   115151569.934  
G 7  22275321.039                  
G 2  23342854.198                  
R 5  17808453.599    95196353.408  
R20  18668516.153    99828928.888  
R21  19437078.714   104011643.811  
> 2019  9 17 15 18  7.9940000  0 12                     
G23  18948160.109                  
G 9  18719244.672    98370212.884  
G 3  19815025.232                  
G 6  19492877.765   102435810.726  
G22  21584958.177                  
G19  21428845.886   112609299.556  
G17  21913139.021   115154298.548  
G 7  22274677.903                  
G 2  23342258.134                  
R 5  17808466.774    95196423.201  
R20  18668984.046    99831429.904  
R21  19436720.007   104009726.673  
> 2019  9 17 15 18  8.9940000  0 12                     
G23  18948335.938                  
G 9  18719007.000    98368969.049  
G 3  19815432.075                  
G 6  19492576.470   102434228.343  
G22  21585466.363                  
G19  21429329.745   112611843.400  
G17  21913658.506   115157027.374  
G 7  22274036.118                  
G 2  23341662.575                  
R 5  17808479.774    95196493.330  
R20  18669451.895    99833931.673  
R21  19436361.780   104007810.258  
> 2019  9 17 15 18  9.9940000  0 12                     
G23  18948513.956                  
G 9  18718769.904    98367725.692  
G 3  19815839.424                  
G 6  19492275.349   102432646.514  
G22  21585975.176                  
G19  21429812.253   112614387.667  
G17  21914177.650   115159756.479  
G 7  22273394.744                  
G 2  23341066.677                  
R 5  17808493.255    95196563.808  
R20  18669920.006    99836434.177  
R21  19436003.894   104005894.670  
> 2019  9 17 15 18 10.9940000  0 12                     
G23  18948691.451                  
G 9  18718533.000    98366482.966  
G 3  19816242.829                  
G 6  19491974.176   102431065.400  
G22  21586481.503                  
G19  21430297.866   112616932.501  
G17  21914697.090   115162485.968  
G 7  22272753.048                  
G 2  23340472.305                  
R 5  17808506.299    95196634.837  
R20  18670388.614    99838937.689  
R21  19435646.452   104003980.075  
> 2019  9 17 15 18 11.9940000  0 12                     
G23  18948867.629                  
G 9  18718296.174    98365240.843  
G 3  19816651.121                  
G 6  19491673.578   102429484.973  
G22  21586991.023                  
G19  21430782.048   112619478.003  
G17  21915216.723   115165215.854  
G 7  22272110.731                  
G 2  23339877.636                  
R 5  17808519.378    95196706.383  
R20  18670857.300    99841442.092  
R21  19435289.142   104002066.448  
> 2019  9 17 15 18 12.9940000  0 12                     
G23  18949044.774                  
G 9  18718059.715    98363999.328  
G 3  19817060.171                  
G 6  19491372.954   102427905.237  
G22  21587499.941                  
G19  21431265.664   112622023.959  
G17  21915736.556   115167946.103  
G 7  22271468.520                  
G 2  23339283.195                  
R 5  17808533.198    95196778.428  
R20  18671326.170    99843947.413  
R21  19434931.857   104000153.791  
> 2019  9 17 15 18 13.9940000  0 12                     
G23  18949224.224                  
G 9  18717823.160    98362758.886  
G 3  19817469.990                  
G 6  19491072.942   102426326.675  
G22  21588009.723                  
G19  21431749.209   112624570.956  
G17  21916256.189   115170677.235  
G 7  22270827.067                  
G 2  23338687.575                  
R 5  17808547.132    95196851.486  
R20  18671795.511    99846454.140  
R21  19434575.140   103998242.532  
> 2019  9 17 15 18 14.9940000  0 12                     
G23  18949401.300                  
G 9  18717586.500    98361519.380  
G 3  19817877.801                  
G 6  19490772.859   102424749.136  
G22  21588518.545                  
G19  21432234.029   112627118.895  
G17  21916775.987   115173409.064  
G 7  22270184.079                  
G 2  23338091.196                  
R 5  17808561.014    95196925.342  
R20  18672264.940    99848962.087  
R21  19434218.562   103996332.677  
> 2019  9 17 15 18 15.9940000  0 12                     
G23  18949579.004                  
G 9  18717350.076    98360280.826  
G 3  19818286.930                  
G 6  19490473.047   102423172.627  
G22  21589030.334                  
G19  21432718.028   112629667.674  
G17  21917296.204   115176141.621  
G 7  22269540.960                  
G 2  23337495.219                  
R 5  17808574.991    95197000.062  
R20  18672734.516    99851471.328  
R21  19433862.098   103994424.098  
> 2019  9 17 15 18 16.9940000  0 12                     
G23  18949756.630                  
G 9  18717113.852    98359043.007  
G 3  19818697.909                  
G 6  19490173.235   102421596.942  
G22  21589541.355                  
G19  21433202.900   112632217.158  
G17  21917816.430   115178874.709  
G 7  22268897.239                  
G 2  23336901.685                  
R 5  17808588.969    95197075.439  
R20  18673203.945    99853981.608  
R21  19433506.131   103992516.587  
> 2019  9 17 15 18 17.9940000  0 12                     
G23  18949934.221                  
G 9  18716877.454    98357805.613  
G 3  19819108.888                  
G 6  19489873.448   102420021.747  
G22  21590050.325                  
G19  21433687.091   112634767.012  
G17  21918336.796   115181607.945  
G 7  22268256.065                  
G 2  23336305.603                  
R 5  17808603.270    95197151.131  
R20  18673673.521    99856492.626  
R21  19433150.024   103990609.871  
> 2019  9 17 15 18 18.9940000  0 12                     
G23  18950111.419                  
G 9  18716641.047    98356568.493  
G 3  19819520.477                  
G 6  19489573.907   102418446.991  
G22  21590558.816                  
G19  21434173.071   112637317.157  
G17  21918856.812   115184341.309  
G 7  22267616.201                  
G 2  23335710.585                  
R 5  17808617.692    95197227.069  
R20  18674143.508    99859004.274  
R21  19432794.083   103988703.820  
> 2019  9 17 15 18 19.9940000  0 12                     
G23  18950289.638                  
G 9  18716404.876    98355332.158  
G 3  19819930.976                  
G 6  19489274.810   102416873.005  
G22  21591065.745                  
G19  21434655.857   112639868.009  
G17  21919377.265   115187075.177  
G 7  22266972.960                  
G 2  23335117.042                  
R 5  17808631.870    95197303.599  
R20  18674613.573    99861516.882  
R21  19432438.090   103986798.883  
> 2019  9 17 15 18 20.9940000  0 12                     
G23  18950465.702    99585363.5033 
G 9  18716168.905    98354096.251  
G 3  19820340.655                  
G 6  19488975.626   102415299.587  
G22  21591575.335                  
G19  21435140.642   112642419.228  
G17  21919897.761   115189809.271  
G 7  22266332.650                  
G 2  23334521.571                  
R 5  17808646.677    95197380.483  
R20  18675083.900    99864030.263  
R21  19432082.490   103984894.700  
> 2019  9 17 15 18 21.9940000  0 12                     
G23  18950640.989    99586283.7662 
G 9  18715933.214    98352860.423  
G 3  19820748.441                  
G 6  19488676.372   102413726.332  
G22  21592081.792                  
G19  21435627.058   112644970.487  
G17  21920418.092   115192543.231  
G 7  22265691.101                  
G 2  23333927.234                  
R 5  17808660.847    95197457.318  
R20  18675554.131    99866544.060  
R21  19431726.776   103982990.986  
> 2019  9 17 15 18 22.9940000  0 12                     
G23  18950815.640    99587204.2132 
G 9  18715698.098    98351624.873  
G 3  19821159.960                  
G 6  19488376.900   102412153.438  
G22  21592590.082                  
G19  21436113.587   112647521.915  
G17  21920938.553   115195277.231  
G 7  22265048.794                  
G 2  23333332.688                  
R 5  17808675.557    95197534.320  
R20  18676024.319    99869058.379  
R21  19431370.896   103981087.931  
> 2019  9 17 15 18 23.9940000  0 12                     
G23  18950991.617    99588124.8892 
G 9  18715462.355    98350389.705  
G 3  19821572.422                  
G 6  19488077.690   102410581.038  
G22  21593097.971                  
G19  21436599.305                  
G17  21921458.928   115198011.405  
G 7  22264409.732                  
G 2  23332737.182                  
R 5  17808690.433    95197611.625  
R20  18676494.375    99871573.432  
R21  19431015.583   103979185.673  
> 2019  9 17 15 18 24.9940000  0 12                     
G23  18951164.967                  
G 9  18715226.881    98349154.763  
G 3  19821982.712                  
G 6  19487778.340   102409008.916  
G22  21593606.959                  
G19  21437085.346   112652625.769  
G17  21921979.520   115200745.554  
G 7  22263767.119                  
G 2  23332141.073                  
R 5  17808705.100    95197689.045  
R20  18676964.938    99874088.987  
R21  19430660.149   103977283.900  
> 2019  9 17 15 18 25.9940000  0 12                     
G23  18951340.586    99589966.1743 
G 9  18714991.347    98347920.006  
G 3  19822390.960                  
G 6  19487479.113   102407437.060  
G22  21594120.152                  
G19  21437570.550                  
G17  21922499.955   115203479.652  
G 7  22263123.956                  
G 2  23331548.028                  
R 5  17808719.846    95197766.522  
R20  18677435.596    99876604.999  
R21  19430304.749   103975382.610  
> 2019  9 17 15 18 26.9940000  0 12                     
G23  18951513.457    99590887.5762 
G 9  18714755.830    98346685.740  
G 3  19822802.549                  
G 6  19487180.505   102405865.791  
G22  21594630.632                  
G19  21438058.946                  
G17  21923020.286   115206214.075  
G 7  22262481.500                  
G 2  23330951.195                  
R 5  17808734.242    95197844.401  
R20  18677906.237    99879121.838  
R21  19429949.637   103973482.244  
> 2019  9 17 15 18 27.9940000  0 12                     
G23  18951689.180    99591809.5232 
G 9  18714520.497    98345452.136  
G 3  19823209.488                  
G 6  19486881.731   102404295.304  
G22  21595139.481                  
G19  21438542.684                  
G17  21923540.974   115208948.888  
G 7  22261839.332                  
G 2  23330354.939                  
R 5  17808748.831    95197922.842  
R20  18678376.896    99881639.663  
R21  19429594.761   103971582.923  
> 2019  9 17 15 18 28.9940000  0 12                     
G23  18951863.211    99592731.8292 
G 9  18714285.032    98344219.046  
G 3  19823618.504                  
G 6  19486582.983   102402725.367  
G22  21595651.261                  
G19  21439027.861                  
G17  21924061.418   115211683.973  
G 7  22261197.688                  
G 2  23329761.448                  
R 5  17808763.620    95198001.686  
R20  18678847.476    99884158.289  
R21  19429240.259   103969684.421  
> 2019  9 17 15 18 29.9940000  0 12                     
G23  18952046.875    99593654.5102 
G 9  18714050.161    98342986.318  
G 3  19824028.654                  
G 6  19486284.305   102401155.918  
G22  21596163.285                  
G19  21439514.626                  
G17  21924581.880   115214419.224  
G 7  22260555.110                  
G 2  23329165.750                  
R 5  17808778.409    95198080.796  
R20  18679318.771    99886677.595  
R21  19428885.662   103967786.645  
> 2019  9 17 15 18 30.9940000  0 12                     
G23  18952217.460    99594574.4673 
G 9  18713815.421    98341754.061  
G 3  19824437.600                  
G 6  19485986.020   102399587.032  
G22  21596673.782                  
G19  21440000.519                  
G17  21925102.393   115217154.739  
G 7  22259911.380                  
G 2  23328572.565                  
R 5  17808792.857    95198160.300  
R20  18679789.954    99889197.714  
R21  19428531.257   103965889.770  
> 2019  9 17 15 18 31.9940000  0 12                     
G23  18952394.588    99595497.8322 
G 9  18713580.759    98340522.169  
G 3  19824843.544                  
G 6  19485687.229   102398018.603  
G22  21597185.274                  
G19  21440485.870                  
G17  21925623.064   115219890.401  
G 7  22259270.634                  
G 2  23327978.341                  
R 5  17808807.716    95198240.056  
R20  18680261.310    99891718.459  
R21  19428177.105   103963993.504  
> 2019  9 17 15 18 32.9940000  0 12                     
G23  18952566.865    99596421.2312 
G 9  18713345.538    98339290.533  
G 3  19825250.841                  
G 6  19485388.734   102396450.467  
G22  21597696.836                  
G19  21440970.402                  
G17  21926143.447   115222626.054  
G 7  22258628.693                  
G 2  23327387.084                  
R 5  17808822.470    95198319.908  
R20  18680732.501    99894239.750  
R21  19427822.665   103962097.948  
> 2019  9 17 15 18 33.9940000  0 12                     
G23  18952745.224    99597344.8082 
G 9  18713111.191    98338059.160  
G 3  19825658.243                  
G 6  19485090.937   102394882.723  
G22  21598207.909                  
G19  21441454.698                  
G17  21926663.856   115225361.736  
G 7  22257985.783                  
G 2  23326793.096                  
R 5  17808837.739    95198399.985  
R20  18681203.849    99896761.589  
R21  19427468.504   103960202.938  
> 2019  9 17 15 18 34.9940000  0 12                     
G23  18952923.338    99598268.6252 
G 9  18712876.538    98336828.073  
G 3  19826065.417                  
G 6  19484792.425   102393315.364  
G22  21598716.130                  
G19  21441940.442                  
G17  21927184.562   115228097.542  
G 7  22257345.352                  
G 2  23326198.027                  
R 5  17808852.651    95198480.237  
R20  18681675.650    99899284.054  
R21  19427114.701   103958308.685  
> 2019  9 17 15 18 35.9940000  0 12                     
G23  18953100.929    99599192.2282 
G 9  18712642.330    98335596.852  
G 3  19826472.321                  
G 6  19484494.297   102391747.924  
G22  21599226.130                  
G19  21442425.994                  
G17  21927705.015   115230832.926  
G 7  22256701.927                  
G 2  23325601.578                  
R 5  17808867.422    95198560.193  
R20  18682147.417    99901806.622  
R21  19426753.560   103956414.534  
> 2019  9 17 15 18 36.9940000  0 12                     
G23  18953276.548    99600116.0392 
G 9  18712407.711    98334365.906  
G 3  19826879.287                  
G 6  19484196.099   102390180.870  
G22  21599737.578                  
G19  21442912.009                  
G17  21928225.537   115233568.360  
G 7  22256061.199                  
G 2  23325005.557                  
R 5  17808882.534    95198640.368  
R20  18682618.983    99904329.789  
R21  19426396.520   103954521.051  
> 2019  9 17 15 18 37.9940000  0 12                     
G23  18953455.771    99601040.3932 
G 9  18712173.564    98333135.719  
G 3  19827289.419                  
G 6  19483898.171   102388614.649  
G22  21600246.967                  
G19  21443399.001                  
G17  21928745.955   115236304.346  
G 7  22255419.502                  
G 2  23324409.746                  
R 5  17808897.559    95198721.185  
R20  18683091.212    99906854.013  
R21  19426048.623   103952628.697  
> 2019  9 17 15 18 38.9940000  0 12                     
G23  18953633.056    99601965.4952 
G 9  18711939.095    98331906.248  
G 3  19827695.486   104195254.3593 
G 6  19483600.052   102387049.243  
G22  21600759.437                  
G19  21443886.673                  
G17  21929266.600   115239040.832  
G 7  22254776.130                  
G 2  23323816.840                  
R 5  17808912.828    95198802.644  
R20  18683563.074    99909379.300  
R21  19425694.663   103950737.435  
> 2019  9 17 15 18 39.9940000  0 12                     
G23  18953810.560    99602891.2232 
G 9  18711705.201    98330677.549  
G 3  19828101.543   104197401.0232 
G 6  19483302.368   102385484.724  
G22  21601271.417                  
G19  21444374.241                  
G17  21929787.236   115241777.888  
G 7  22254133.238                  
G 2  23323221.290                  
R 5  17808927.704    95198884.791  
R20  18684035.557    99911905.673  
R21  19425337.832   103948847.285  
> 2019  9 17 15 18 40.9940000  0 12                     
G23  18953985.655    99603817.7832 
G 9  18711471.525    98329449.802  
G 3  19828507.645   104199548.3422 
G 6  19483004.798   102383921.158  
G22  21601781.103                  
G19  21444859.785                  
G17  21930308.273   115244515.610  
G 7  22253491.192                  
G 2  23322628.288                  
R 5  17808943.078    95198967.737  
R20  18684508.135    99914433.260  
R21  19424989.186   103946958.445  
> 2019  9 17 15 18 41.9940000  0 12                     
G23  18954167.530    99604744.9842 
G 9  18711238.119    98328222.682  
G 3  19828917.577   104201696.2112 
G 6  19482707.246   102382358.373  
G22  21602290.510                  
G19  21445348.382                  
G17  21930829.485   115247253.745  
G 7  22252849.539                  
G 2  23322033.288                  
R 5  17808958.783    95199051.228  
R20  18684980.852    99916961.793  
R21  19424628.725   103945070.626  
> 2019  9 17 15 18 42.9940000  0 12                     
G23  18954344.493    99605672.3181 
G 9  18711004.845    98326996.352  
G 3  19829326.174   104203844.6552 
G 6  19482409.825   102380796.488  
G22  21602798.564                  
G19  21445835.845                  
G17  21931350.854   115249992.509  
G 7  22252206.533                  
G 2  23321439.518                  
R 5  17808974.383    95199135.427  
R20  18685453.570    99919491.436  
R21  19424274.198   103943184.007  
> 2019  9 17 15 18 43.9940000  0 12                     
G23  18954520.880    99606600.954  
G 9  18710771.902    98325770.852  
G 3  19829736.070   104205993.6722 
G 6  19482112.691   102379235.510  
G22  21603308.050                  
G19  21446322.314                  
G17  21931872.162   115252731.831  
G 7  22251563.597                  
G 2  23320844.727                  
R 5  17808990.193    95199220.372  
R20  18685926.436    99922022.203  
R21  19423922.401   103941298.551  
> 2019  9 17 15 18 44.9940000  0 11                     
G23  18954695.277    99607530.320  
G 9  18710539.186    98324546.263  
G 3  19830143.524   104208143.4162 
G 6  19481815.566   102377675.491  
G22  21603820.161                  
G19  21446808.215                  
G17  21932393.679   115255471.806  
G 2  23320250.713                  
R 5  17809006.422    95199306.094  
R20  18686399.895    99924554.154  
R21  19423567.726   103939414.347  
> 2019  9 17 15 18 45.9940000  0 11                     
G23  18954874.491    99608460.172  
G 9  18710306.522    98323322.204  
G 3  19830554.058   104210293.5442 
G 6  19481519.087   102376116.127  
G22  21604331.243                  
G19  21447296.359                  
G17  21932914.978   115258212.149  
G 2  23319658.514                  
R 5  17809022.511    95199392.283  
R20  18686873.215    99927086.974  
R21  19423214.481   103937531.057  
> 2019  9 17 15 18 46.9940000  0 11                     
G23  18955052.666    99609390.792  
G 9  18710074.085    98322099.010  
G 3  19830961.913   104212444.2452 
G 6  19481222.747   102374557.682  
G22  21604843.451                  
G19  21447782.426                  
G17  21933436.452   115260953.076  
G 2  23319064.351                  
R 5  17809038.644    95199479.206  
R20  18687347.006    99929620.966  
R21  19422860.774   103935624.4903 
> 2019  9 17 15 18 47.9940000  0 11                     
G23  18955229.498    99610322.180  
G 9  18709841.997    98320876.720  
G 3  19831370.039   104214595.7122 
G 6  19480926.111   102373000.238  
G22  21605355.501                  
G19  21448270.351                  
G17  21933958.030   115263694.699  
G 2  23318473.234                  
R 5  17809055.160    95199566.931  
R20  18687820.849    99932156.166  
R21  19422510.086                  
> 2019  9 17 15 18 48.9940000  0 11                     
G23  18955405.937    99611254.255  
G 9  18709609.761    98319655.140  
G 3  19831779.718   104216747.2231 
G 6  19480629.876   102371443.628  
G22  21605868.695                  
G19  21448759.961                  
G17  21934479.922   115266436.767  
G 2  23317878.888                  
R 5  17809071.494    95199655.314  
R20  18688294.823    99934692.407  
R21  19422156.605                  
> 2019  9 17 15 18 49.9940000  0 11                     
G23  18955583.258    99612186.684  
G 9  18709378.074    98318433.985  
G 3  19832192.224   104218899.439  
G 6  19480333.650   102369887.507  
G22  21606377.875                  
G19  21449248.829                  
G17  21935001.832   115269179.086  
G 2  23317285.468                  
R 5  17809088.133    95199744.010  
R20  18688769.207    99937229.371  
R21  19421805.140                  
> 2019  9 17 15 18 50.9940000  0 11                     
G23  18955760.866    99613119.652  
G 9  18709146.702    98317213.516  
G 3  19832598.273   104221052.134  
G 6  19480037.537   102368332.168  
G22  21606886.435                  
G19  21449738.080                  
G17  21935523.620   115271921.850  
G 2  23316693.259                  
R 5  17809105.085    95199833.274  
R20  18689243.670    99939767.291  
R21  19421453.545                  
> 2019  9 17 15 18 51.9940000  0 11                     
G23  18955938.736    99614053.225  
G 9  18708915.382    98315993.745  
G 3  19833008.082   104223205.326  
G 6  19479741.852   102366777.609  
G22  21607397.595                  
G19  21450227.332                  
G17  21936045.870   115274665.062  
G 2  23316100.982                  
R 5  17809122.108    95199923.141  
R20  18689718.569    99942306.245  
R21  19421103.764                  
> 2019  9 17 15 18 52.9940000  0 11                     
G23  18956116.641    99614987.003  
G 9  18708683.669    98314774.242  
G 3  19833417.456   104225358.607  
G 6  19479445.678   102365223.424  
G22  21607907.831                  
G19  21450716.340                  
G17  21936568.155   115277408.397  
G 2  23315506.627                  
R 5  17809139.105    95200013.223  
R20  18690193.895    99944845.756  
R21  19420753.800                  
> 2019  9 17 15 18 53.9940000  0 11                     
G23  18956294.816    99615921.263  
G 9  18708452.567    98313555.370  
G 3  19833827.422   104227512.303  
G 6  19479150.028   102363669.891  
G22  21608417.046                  
G19  21451204.998                  
G17  21937090.091   115280151.992  
G 2  23314912.517                  
R 5  17809155.848    95200103.750  
R20  18690669.170    99947386.178  
R21  19420402.431                  
> 2019  9 17 15 18 54.9940000  0 10                     
G23  18956473.140    99616855.978  
G 9  18708221.230    98312336.986  
G 3  19834238.384   104229666.277  
G 6  19478854.439   102362116.989  
G19  21451695.367                  
G17  21937612.385   115282895.927  
G 2  23314319.707                  
R 5  17809172.818    95200194.690  
R20  18691144.505    99949927.376  
R21  19420055.294                  
> 2019  9 17 15 18 55.9940000  0 11                     
G23  18956651.080    99617790.862  
G 9  18707990.023    98311118.850  
G 3  19834649.031   104231820.364  
G 6  19478558.902   102360564.453  
G22  21609436.095                  
G19  21452186.634                  
G17  21938134.574   115285639.927  
G 2  23313723.276                  
R 5  17809189.632    95200285.785  
R20  18691619.945    99952469.153  
R21  19419705.644                  
> 2019  9 17 15 18 56.9940000  0 11                     
G23  18956829.500    99618725.810  
G 9  18707758.956    98309900.939  
G 3  19835054.618   104233974.352  
G 6  19478263.356   102359012.174  
G22  21609944.263                  
G19  21452677.474                  
G17  21938656.545   115288383.839  
G 2  23313130.265                  
R 5  17809206.489    95200376.942  
R20  18692095.472    99955011.389  
R21  19419355.034                  
> 2019  9 17 15 18 57.9940000  0 11                     
G23  18957008.050    99619661.352  
G 9  18707528.124    98308683.674  
G 3  19835465.666   104236128.929  
G 6  19477967.793   102357460.675  
G22  21610454.359                  
G19  21453166.882                  
G17  21939178.568   115291128.242  
G 2  23312539.331                  
R 5  17809223.721    95200468.681  
R20  18692571.304    99957554.648  
R21  19419007.286                  
> 2019  9 17 15 18 58.9940000  0 11                     
G23  18957186.331    99620597.332  
G 9  18707297.843    98307466.945  
G 3  19835878.966   104238283.761  
G 6  19477672.448   102355909.770  
G22  21610964.307                  
G19  21453658.446                  
G17  21939700.888   115293872.888  
G 2  23311947.673                  
R 5  17809240.691    95200560.840  
R20  18693047.250    99960098.693  
R21  19418659.372                  
> 2019  9 17 15 18 59.9940000  0 11                     
G23  18957364.942    99621533.468  
G 9  18707066.872    98306250.477  
G 3  19836287.222   104240438.703  
G 6  19477377.112   102354359.218  
G22  21611474.158                  
G19  21454148.911                  
G17  21940222.929   115296617.591  
G 2  23311358.859                  
R 5  17809257.679    95200653.174  
R20  18693523.476    99962643.311  
R21  19418309.722                  
> 2019  9 17 15 19  0.9940000  0 11                     
G23  18957543.397    99622469.816  
G 9  18706835.927    98305034.308  
G 3  19836697.338   104242593.735  
G 6  19477082.116   102352809.050  
G22  21611983.504                  
G19  21454637.299                  
G17  21940745.336   115299362.358  
G 2  23310767.881                  
R 5  17809274.640    95200745.712  
R20  18693999.701    99965188.527  
R21  19417961.730                  
> 2019  9 17 15 19  1.9940000  0 11                     
G23  18957722.122    99623406.763  
G 9  18706605.252    98303818.768  
G 3  19837108.491   104244749.223  
G 6  19476787.277   102351259.652  
G22  21612493.138                  
G19  21455125.861   112747446.4053 
G17  21941267.551   115302107.570  
G 2  23310178.003                  
R 5  17809291.759    95200838.788  
R20  18694475.778    99967734.692  
R21  19417615.544                  
> 2019  9 17 15 19  2.9940000  0 10                     
G23  18957900.769    99624344.020  
G 9  18706374.508    98302603.716  
G 3  19837517.629   104246904.929  
G 6  19476492.229   102349710.777  
G19  21455615.689   112750016.5282 
G17  21941790.063   115304852.962  
G 2  23309588.037                  
R 5  17809309.166    95200932.198  
R20  18694951.933    99970281.586  
R21  19417266.984                  
> 2019  9 17 15 19  3.9940000  0 10                     
G23  18958079.468    99625281.558  
G 9  18706144.183    98301388.965  
G 3  19837925.458   104249060.902  
G 6  19476197.373   102348162.305  
G19  21456104.600   112752586.8052 
G17  21942312.592   115307598.499  
G 2  23308996.562                  
R 5  17809326.729    95201025.842  
R20  18695428.341    99972829.122  
R21  19416917.369                  
> 2019  9 17 15 19  4.9940000  0 10                     
G23  18958258.036    99626219.224  
G 9  18705913.927    98300174.454  
G 3  19838337.126   104251216.733  
G 6  19475902.464   102346614.188  
G19  21456591.496   112755157.3522 
G17  21942835.200   115310344.013  
G 2  23308406.352                  
R 5  17809343.961    95201119.634  
R20  18695904.715    99975377.211  
R21  19416569.508                  
> 2019  9 17 15 19  5.9940000  0 11                     
G23  18958436.613    99627156.951  
G 9  18705683.680    98298960.118  
G 3  19838744.091   104253372.576  
G 6  19475607.895   102345066.312  
G22  21614532.326                  
G19  21457082.606   112757727.9112 
G17  21943357.694   115313089.508  
G 2  23307813.577                  
R 5  17809361.333    95201213.479  
R20  18696381.132    99977925.766  
R21  19416221.952                  
> 2019  9 17 15 19  6.9940000  0 10                     
G23  18958615.277    99628094.768  
G 9  18705453.433    98297746.002  
G 3  19839151.423   104255528.484  
G 6  19475313.371   102343518.736  
G19  21457569.817   112760298.7102 
G17  21943879.840   115315834.943  
G 2  23307219.536                  
R 5  17809378.583    95201307.401  
R20  18696857.540    99980474.789  
R21  19415871.874                  
> 2019  9 17 15 19  7.9940000  0 10                     
G23  18958794.037    99629032.899  
G 9  18705223.387    98296532.237  
G 3  19839562.157   104257684.549  
G 6  19475018.741   102341971.611  
G19  21458059.478   112762869.8682 
G17  21944402.535   115318580.517  
G 2  23306626.142                  
R 5  17809396.120    95201401.609  
R20  18697334.420    99983024.481  
R21  19415522.425                  
> 2019  9 17 15 19  8.9940000  0 10                     
G23  18958972.605    99629971.204  
G 9  18704993.280    98295318.727  
G 3  19839973.555   104259840.632  
G 6  19474724.147   102340424.854  
G19  21458550.213   112765441.1302 
G17  21944924.846   115321326.131  
G 2  23306032.878                  
R 5  17809413.614    95201495.953  
R20  18697811.151    99985574.718  
R21  19415177.766                  
> 2019  9 17 15 19  9.9940000  0 10                     
G23  18959150.789    99630909.590  
G 9  18704763.268    98294105.460  
G 3  19840383.792   104261996.805  
G 6  19474429.622   102338878.407  
G19  21459035.809   112768012.6092 
G17  21945447.157   115324071.743  
G 2  23305440.452                  
R 5  17809431.439    95201590.434  
R20  18698287.970    99988125.463  
R21  19414830.855                  
> 2019  9 17 15 19 10.9940000  0 10                     
G23  18959329.889    99631848.282  
G 9  18704533.318    98292892.513  
G 3  19840794.919   104264153.063  
G 6  19474134.835   102337332.383  
G19  21459525.332   112770584.3362 
G17  21945969.608   115326817.497  
G 2  23304849.055                  
R 5  17809448.959    95201685.140  
R20  18698765.216    99990676.871  
R21  19414481.816   103890791.6592 
> 2019  9 17 15 19 11.9940000  0 11                     
G23  18959508.867    99632787.302  
G 9  18704303.150    98291680.051  
G 3  19841208.655   104266309.637  
G 6  19473840.564   102335786.913  
G22  21617590.992                  
G19  21460014.208   112773156.5112 
G17  21946492.382   115329563.460  
G 2  23304258.260                  
R 5  17809466.706    95201780.186  
R20  18699242.540    99993229.006  
R21  19414134.993   103888929.3172 
> 2019  9 17 15 19 12.9940000  0 10                     
G23  18959687.994    99633726.710  
G 9  18704073.156    98290468.037  
G 3  19841620.916   104268466.493  
G 6  19473546.039   102334241.991  
G19  21460503.346   112775729.144  
G17  21947014.728   115332309.674  
G 2  23303666.183                  
R 5  17809484.506    95201875.589  
R20  18699719.943    99995781.923  
R21  19413787.053   103887067.8202 
> 2019  9 17 15 19 13.9940000  0 10                     
G23  18959867.173    99634666.344  
G 9  18703843.075    98289256.330  
G 3  19842027.358   104270623.440  
G 6  19473251.907   102332697.478  
G19  21460991.743   112778301.929  
G17  21947537.301   115335055.914  
G 2  23303076.846                  
R 5  17809502.479    95201971.188  
R20  18700197.529    99998335.439  
R21  19413437.735   103885206.9512 
> 2019  9 17 15 19 14.9940000  0 10                     
G23  18960046.308    99635606.257  
G 9  18703613.343    98288045.002  
G 3  19842440.030   104272780.531  
G 6  19472957.740   102331153.427  
G19  21461481.335   112780875.045  
G17  21948059.900   115337802.311  
G 2  23302486.339                  
R 5  17809520.322    95202067.077  
R20  18700675.098   100000889.669  
R21  19413091.392   103883346.8932 
> 2019  9 17 15 19 15.9940000  0 10                     
G23  18960225.443    99636546.569  
G 9  18703383.794    98286834.173  
G 3  19842844.761   104274937.949  
G 6  19472664.070   102329609.968  
G19  21461969.723   112783448.660  
G17  21948582.630   115340549.012  
G 2  23301893.486                  
R 5  17809538.235    95202163.366  
R20  18701152.737   100003444.696  
R21  19412746.837   103881487.6312 
