     3.02           OBSERVATION DATA    M: Mixed            RINEX VERSION / TYPE
CONVBIN 2.4.2                           20190917 143230 UTC PGM / RUN BY / DATE 
log: ./output_ubx/raw_obs_test_lollo_17-9-2019_16:30.ubx    COMMENT             
format: u-blox                                              COMMENT             
                                                            MARKER NAME         
                                                            MARKER NUMBER       
                                                            MARKER TYPE         
                                                            OBSERVER / AGENCY   
                                                            REC # / TYPE / VERS 
                                                            ANT # / TYPE        
  4508593.2906   708384.5468  4440726.3339                  APPROX POSITION XYZ 
        0.0000        0.0000        0.0000                  ANTENNA: DELTA H/E/N
G    2 C1C L1C                                              SYS / # / OBS TYPES 
R    2 C1C L1C                                              SYS / # / OBS TYPES 
E    2 C1C L1C                                              SYS / # / OBS TYPES 
J    2 C1C L1C                                              SYS / # / OBS TYPES 
S    2 C1C L1C                                              SYS / # / OBS TYPES 
C    2 C1I L1I                                              SYS / # / OBS TYPES 
  2019     9    17    14    30   46.9960000     GPS         TIME OF FIRST OBS   
  2019     9    17    14    32   47.9960000     GPS         TIME OF LAST OBS    
G                                                           SYS / PHASE SHIFT   
R                                                           SYS / PHASE SHIFT   
E                                                           SYS / PHASE SHIFT   
J                                                           SYS / PHASE SHIFT   
S                                                           SYS / PHASE SHIFT   
C                                                           SYS / PHASE SHIFT   
  0                                                         GLONASS SLOT / FRQ #
 C1C    0.000 C1P    0.000 C2C    0.000 C2P    0.000        GLONASS COD/PHS/BIS 
                                                            END OF HEADER       
> 2019  9 17 14 30 46.9960000  0 13                     
G 3  19454005.111   102231593.936  
G23  19349117.401   101680237.548  
G22  20863360.970                  
R21  21561432.946                  
G17  21279685.255                  
G 9  20315273.250   106757448.810  
R20  18565516.444    99278073.998  
R 5  18638872.441    99635409.464  
G 6  21289028.590   111874588.072  
G31  22892146.694   120298965.626  
G 1  21625357.857   113642007.410  
G19  21031270.298   110520025.936  
R13  21572048.200   115193449.240  
> 2019  9 17 14 30 47.9960000  0 13                     
G 3  19454309.966   102233196.880  
G23  19349114.094   101680218.522  
G22  20863816.054                  
R21  21560793.012                  
G17  21280046.343                  
G 9  20314854.034   106755244.769  
R20  18565568.166    99278349.595  
R 5  18638730.291    99634649.895  
G 6  21288548.814   111872066.981  
G31  22892632.499   120301528.687  
G 1  21626063.622   113645715.746  
G19  21031505.876   110521252.119  
R13  21572185.987   115194198.070  
> 2019  9 17 14 30 49.9960000  0 13                     
G 3  19454919.685   102236403.761  
G23  19349107.620   101680181.867  
G22  20864727.235                  
R21  21559511.721                  
G17  21280770.239                  
G 9  20314015.944   106750837.916  
R20  18565671.576    99278903.587  
R 5  18638446.367    99633132.070  
G 6  21287590.142   111867025.872  
G31  22893611.142   120306656.232  
G 1  21627475.624   113653133.267  
G19  21031974.188   110523706.359  
R13  21572465.994   115195698.380  
> 2019  9 17 14 30 50.9960000  0 13                     
G 3  19455224.776   102238007.699  
G23  19349104.985   101680164.264  
G22  20865183.671                  
R21  21558871.987                  
G17  21281130.909                  
G 9  20313597.174   106748635.096  
R20  18565724.031    99279182.003  
R 5  18638304.741    99632373.803  
G 6  21287110.750   111864505.752  
G31  22894100.220   120309220.823  
G 1  21628181.381   113656842.434  
G19  21032209.486   110524934.515  
R13  21572604.644   115196449.760  
> 2019  9 17 14 30 51.9960000  0 13                     
G 3  19455530.513   102239611.951  
G23  19349102.010   101680147.170  
G22  20865641.731                  
R21  21558232.096                  
G17  21281492.827                  
G 9  20313178.543   106746432.717  
R20  18565776.068    99279461.377  
R 5  18638162.993    99631615.998  
G 6  21286631.602   111861985.992  
G31  22894593.773   120311785.918  
G 1  21628887.102   113660551.884  
G19  21032444.654   110526163.437  
R13  21572746.270   115197202.125  
> 2019  9 17 14 30 52.9960000  0 13                     
G 3  19455835.691   102241216.418  
G23  19349099.549   101680130.460  
G22  20866099.154                  
R21  21557590.766                  
G17  21281854.343                  
G 9  20312760.000   106744230.607  
R20  18565828.296    99279741.621  
R 5  18638021.158    99630858.481  
G 6  21286152.026   111859466.453  
G31  22895083.156   120314351.469  
G 1  21629593.260   113664261.487  
G19  21032680.686   110527392.877  
R13  21572887.634   115197955.188  
> 2019  9 17 14 30 53.9960000  0 13                     
G 3  19456141.061   102242821.196  
G23  19349096.783   101680114.198  
G22  20866554.831                  
R21  21556950.858                  
G17  21282216.313                  
G 9  20312341.378   106742028.903  
R20  18565880.822    99280022.761  
R 5  18637879.471    99630101.384  
G 6  21285672.843   111856947.182  
G31  22895571.064   120316917.504  
G 1  21630299.331   113667971.362  
G19  21032913.751   110528623.062  
R13  21573027.856   115198709.160  
> 2019  9 17 14 30 54.9960000  0 13                     
G 3  19456446.553   102244426.430  
G23  19349094.419   101680098.563  
G22  20867010.578                  
R21  21556310.112                  
G17  21282578.588                  
G 9  20311922.494   106739827.743  
R20  18565933.382    99280305.022  
R 5  18637737.766    99629344.879  
G 6  21285193.582   111854428.359  
G31  22896060.612   120319484.247  
G 1  21631005.506   113671681.630  
G19  21033147.907   110529854.036  
R13  21573166.576   115199464.000  
> 2019  9 17 14 30 55.9960000  0 13                     
G 3  19456751.862   102246031.998  
G23  19349092.194   101680083.451  
G22  20867467.687                  
R21  21555670.308                  
G17  21282942.094                  
G 9  20311504.273   106737627.014  
R20  18565986.692    99280588.191  
R 5  18637596.289    99628588.863  
G 6  21284714.469   111851909.897  
G31  22896549.305   120322051.499  
G 1  21631711.813   113675392.175  
G19  21033381.583   110531085.764  
R13  21573307.190   115200219.828  
> 2019  9 17 14 30 56.9960000  0 13                     
G 3  19457057.215   102247637.914  
G23  19349090.126   101680068.811  
G22  20867924.760                  
R21  21555032.197                  
G17  21283308.365                  
G 9  20311085.887   106735426.700  
R20  18566039.776    99280872.347  
R 5  18637454.898    99627833.304  
G 6  21284235.434   111849391.753  
G31  22897038.252   120324619.302  
G 1  21632418.049   113679103.051  
G19  21033616.733   110532318.089  
R13  21573447.019   115200976.483  
> 2019  9 17 14 30 57.9960000  0 13                     
G 3  19457362.751   102249244.236  
G23  19349088.032   101680054.779  
G22  20868380.787                  
R21  21554393.144                  
G17  21283676.521                  
G 9  20310667.596   106733226.907  
R20  18566093.243    99281157.537  
R 5  18637313.456    99627078.293  
G 6  21283756.251   111846874.058  
G31  22897527.329   120327187.777  
G 1  21633124.242   113682814.285  
G19  21033849.039   110533551.338  
R13  21573589.028   115201734.097  
> 2019  9 17 14 30 59.9960000  0 13                     
G 3  19457974.224   102252458.040  
G23  19349083.896   101680028.295  
G22  20869290.798                  
R21  21553113.860                  
G17  21284406.097                  
G 9  20309830.867   106728828.682  
R20  18566200.475    99281730.966  
R 5  18637031.050    99625569.683  
G 6  21282798.531   111841839.722  
G31  22898506.321   120332326.377  
G 1  21634537.247   113690237.718  
G19  21034319.322   110536019.928  
R13  21573871.862   115203252.089  
> 2019  9 17 14 31  0.9960000  0 13                     
G 3  19458280.082   102254065.320  
G23  19349081.715   101680015.715  
G22  20869747.654                  
R21  21552473.577                  
G17  21284769.934                  
G 9  20309412.498   106726630.119  
R20  18566254.378    99282019.052  
R 5  18636890.218    99624815.973  
G 6  21282319.758   111839323.001  
G31  22898996.079   120334896.418  
G 1  21635243.554   113693949.778  
G19  21034551.759   110537255.100  
R13  21574013.671   115204012.289  
> 2019  9 17 14 31  1.9960000  0 13                     
G 3  19458586.011   102255672.990  
G23  19349079.691   101680003.677  
G22  20870202.616                  
R21  21551833.093                  
G17  21285133.789                  
G 9  20308993.990   106724432.008  
R20  18566308.369    99282308.122  
R 5  18636749.229    99624062.739  
G 6  21281841.281   111836806.640  
G31  22899485.898   120337467.056  
G 1  21635949.999   113697662.137  
G19  21034787.128   110538491.163  
R13  21574153.700   115204773.415  
> 2019  9 17 14 31  3.9960000  0 13                     
G 3  19459198.077   102258889.210  
G23  19349075.093   101679980.964  
G22  20871120.253                  
R21  21550556.487                  
G17  21285863.661                  
G 9  20308157.985   106720036.936  
R20  18566416.744    99282889.000  
R 5  18636467.530    99622557.476  
G 6  21280884.067   111831774.718  
G31  22900466.181   120342609.758  
G 1  21637363.153   113705087.634  
G19  21035257.176   110540965.144  
R13  21574436.865   115206298.153  
> 2019  9 17 14 31  5.9960000  0 13                     
G 3  19459810.144   102262106.526  
G23  19349071.053   101679959.993  
G22  20872035.622                  
R21  21549274.751                  
G17  21286594.520   111861800.6462 
G 9  20307322.163   106715643.287  
R20  18566525.869    99283473.443  
R 5  18636186.180    99621053.750  
G 6  21279926.879   111826743.881  
G31  22901446.796   120347754.436  
G 1  21638776.586   113712513.999  
G19  21035730.548   110543441.790  
R13  21574718.127   115207826.155  
> 2019  9 17 14 31  6.9960000  0 13                     
G 3  19460116.351   102263715.619  
G23  19349068.985   101679950.163  
G22  20872495.339                  
R21  21548634.058                  
G17  21286958.907   111863714.1952 
G 9  20306904.047   106713447.054  
R20  18566580.820    99283767.047  
R 5  18636045.889    99620302.513  
G 6  21279448.630   111824228.923  
G31  22901937.043   120350327.521  
G 1  21639483.128   113716227.550  
G19  21035966.640   110544681.079  
R13  21574861.542   115208591.334  
> 2019  9 17 14 31  7.9960000  0 13                     
G 3  19460422.637   102265325.050  
G23  19349067.380   101679940.841  
G22  20872951.331                  
R21  21547995.519                  
G17  21287325.396   111865628.2712 
G 9  20306486.097   106711251.226  
R20  18566635.971    99284061.584  
R 5  18635905.179    99619551.725  
G 6  21278970.092   111821714.297  
G31  22902427.717   120352901.128  
G 1  21640189.713   113719941.386  
G19  21036202.794   110545921.089  
R13  21575004.677   115209357.447  
> 2019  9 17 14 31  8.9960000  0 13                     
G 3  19460728.758   102266934.869  
G23  19349065.478   101679932.077  
G22  20873407.052                  
R21  21547354.416                  
G17  21287690.664   111867542.9242 
G 9  20306068.269   106709055.871  
R20  18566691.061    99284357.158  
R 5  18635764.862    99618801.436  
G 6  21278491.477   111819200.078  
G31  22902918.050   120355475.337  
G 1  21640896.438   113723655.568  
G19  21036438.721   110547161.814  
R13  21575149.732   115210124.589  
> 2019  9 17 14 31  9.9960000  0 13                     
G 3  19461035.079   102268544.973  
G23  19349063.628   101679923.757  
G22  20873862.485                  
R21  21546714.647                  
G17  21288054.205   111869458.1292 
G 9  20305650.493   106706860.916  
R20  18566746.509    99284653.658  
R 5  18635624.379    99618051.565  
G 6  21278013.271   111816686.084  
G31  22903408.637   120358050.089  
G 1  21641603.303   113727370.001  
G19  21036675.468   110548403.248  
R13  21575293.060   115210892.443  
> 2019  9 17 14 31 11.9960000  0 13                     
G 3  19461648.376   102271766.142  
G23  19349060.749   101679908.563  
G22  20874776.205                  
R21  21545439.420                  
G17  21288786.302   111873290.1142 
G 9  20304814.514   106702472.152  
R20  18566857.990    99285249.477  
R 5  18635344.199    99616553.075  
G 6  21277056.938   111811659.108  
G31  22904389.863   120363201.087  
G 1  21643017.085   113734799.623  
G19  21037148.770   110550888.139  
R13  21575580.203   115212430.769  
> 2019  9 17 14 31 12.9960000  0 13                     
G 3  19461955.081   102273377.204  
G23  19349059.222   101679901.702  
G22  20875229.980                  
R21  21544801.606                  
G17  21289149.450   111875206.924  
G 9  20304396.913   106700278.408  
R20  18566914.084    99285548.827  
R 5  18635203.855    99615804.528  
G 6  21276578.750   111809146.097  
G31  22904880.598   120365777.390  
G 1  21643723.731   113738514.830  
G19  21037383.764   110552131.645  
R13  21575724.289   115213201.311  
> 2019  9 17 14 31 13.9960000  0 13                     
G 3  19462261.594   102274988.575  
G23  19349058.053   101679895.295  
G22  20875686.539                  
R21  21544160.904                  
G17  21289514.596   111877124.171  
G 9  20303979.469   106698085.043  
R20  18566970.483    99285849.096  
R 5  18635063.992    99615056.360  
G 6  21276100.579   111806633.392  
G31  22905371.603   120368354.193  
G 1  21644430.866   113742230.352  
G19  21037620.048   110553375.755  
R13  21575868.428   115213972.575  
> 2019  9 17 14 31 14.9960000  0 13                     
G 3  19462568.465   102276600.408  
G23  19349056.648   101679889.516  
G22  20876142.304                  
R21  21543523.404                  
G17  21289878.695   111879042.185  
G 9  20303562.217   106695892.253  
R20  18567026.542    99286150.476  
R 5  18634923.989    99614308.799  
G 6  21275622.661   111804121.188  
G31  22905862.862   120370931.696  
G 1  21645137.871   113745946.247  
G19  21037859.736   110554620.815  
R13  21576014.469   115214744.928  
> 2019  9 17 14 31 15.9960000  0 13                     
G 3  19462875.405   102278212.735  
G23  19349055.793   101679884.372  
G22  20876600.223                  
R21  21542884.691                  
G17  21290246.057   111880960.884  
G 9  20303144.903   106693699.996  
R20  18567083.142    99286452.920  
R 5  18634784.073    99613561.804  
G 6  21275144.603   111801609.379  
G31  22906354.033   120373509.831  
G 1  21645844.892   113749662.528  
G19  21038099.013   110555866.611  
R13  21576159.219   115215518.258  
> 2019  9 17 14 31 16.9960000  0 13                     
G 3  19463182.250   102279825.310  
G23  19349054.920   101679879.659  
G22  20877057.314                  
R21  21542249.241                  
G17  21290611.552   111882879.964  
G 9  20302727.372   106691508.085  
R20  18567139.759    99286756.279  
R 5  18634644.645    99612815.233  
G 6  21274666.921   111799097.898  
G31  22906845.335   120376088.483  
G 1  21646552.115   113753379.089  
G19  21038338.212   110557113.014  
R13  21576305.399   115216292.450  
> 2019  9 17 14 31 17.9960000  0 13                     
G 3  19463489.129   102281438.044  
G23  19349054.126   101679875.253  
G22  20877513.018                  
R21  21541609.917                  
G17  21290978.818   111884799.477  
G 9  20302310.268   106689316.435  
R20  18567196.568    99287060.386  
R 5  18634504.930    99612068.912  
G 6  21274189.021   111796586.532  
G31  22907336.611   120378667.501  
G 1  21647259.276   113757095.725  
G19  21038578.397   110558360.054  
R13  21576450.498   115217067.259  
> 2019  9 17 14 31 18.9960000  0 12                     
G 3  19463795.957   102283050.965  
G23  19349053.751   101679871.196  
R21  21540973.866                  
G17  21291343.859   111886719.416  
G 9  20301892.754   106687125.069  
R20  18567253.569    99287365.310  
R 5  18634365.355    99611322.866  
G 6  21273711.347   111794075.382  
G31  22907828.053   120381246.891  
G 1  21647966.446   113760812.507  
G19  21038817.116   110559607.619  
R13  21576593.005   115217842.947  
> 2019  9 17 14 31 19.9960000  0 13                     
G 3  19464103.290   102284664.259  
G23  19349053.167   101679867.691  
G22  20878423.649                  
R21  21540336.409                  
G17  21291708.874   111888639.951  
G 9  20301475.694   106684934.158  
R20  18567310.780    99287671.237  
R 5  18634226.102    99610577.317  
G 6  21273233.543   111791564.596  
G31  22908319.416   120383826.883  
G 1  21648673.485   113764529.620  
G19  21039054.962   110560855.920  
R13  21576740.590   115218619.390  
> 2019  9 17 14 31 20.9960000  0 13                     
G 3  19464410.108   102286277.745  
G23  19349053.228   101679864.524  
G22  20878879.641                  
R21  21539699.180                  
G17  21292074.464   111890560.878  
G 9  20301058.625   106682743.500  
R20  18567368.243    99287977.968  
R 5  18634086.736    99609832.064  
G 6  21272755.529   111789053.979  
G31  22908810.631   120386407.256  
G 1  21649380.943   113768246.833  
G19  21039295.645   110562104.832  
R13  21576887.085   115219396.610  
> 2019  9 17 14 31 24.9960000  0 12                     
G 3  19465639.092   102292735.097  
G23  19349052.102   101679856.932  
R21  21537147.993                  
G17  21293538.311   111898250.043  
G 9  20299391.527   106673985.285  
R20  18567599.258    99289214.729  
R 5  18633529.786    99606855.750  
G 6  21270845.018   111779014.988  
G31  22910776.773   120396734.277  
G 1  21652210.967   113783118.762  
G19  21040249.456   110567107.410  
R13  21577478.542   115222514.328  
> 2019  9 17 14 31 25.9960000  0 12                     
G 3  19465946.530   102294350.457  
G23  19349052.626   101679856.415  
R21  21536511.400                  
G17  21293903.779   111900173.869  
G 9  20298975.340   106671796.931  
R20  18567657.350    99289526.522  
R 5  18633390.891    99606112.946  
G 6  21270367.632   111776506.261  
G31  22911268.372   120399317.540  
G 1  21652918.644   113786837.594  
G19  21040486.936   110568359.944  
R13  21577624.705   115223296.141  
> 2019  9 17 14 31 26.9960000  0 13                     
G 3  19466253.724   102295965.968  
G23  19349053.167   101679856.292  
G22  20881629.123                  
R21  21535874.519                  
G17  21294271.150   111902098.128  
G 9  20298559.004   106669608.895  
R20  18567715.790    99289839.104  
R 5  18633252.005    99605370.465  
G 6  21269890.439   111773997.715  
G31  22911760.276   120401901.212  
G 1  21653628.484   113790556.597  
G19  21040727.740   110569613.142  
R13  21577772.081   115224078.648  
> 2019  9 17 14 31 27.9960000  0 13                     
G 3  19466561.397   102297581.988  
G23  19349053.734   101679856.822  
G22  20882089.835                  
R21  21535236.723                  
G17  21294635.956   111904023.072  
G 9  20298142.921   106667421.414  
R20  18567774.406    99290152.792  
R 5  18633112.874    99604628.603  
G 6  21269413.411   111771489.646  
G31  22912252.416   120404485.579  
G 1  21654334.650   113794276.009  
G19  21040966.372   110570867.094  
R13  21577918.305   115224862.240  
> 2019  9 17 14 31 29.9960000  0 13                     
G 3  19467176.613   102300814.770  
G23  19349055.208   101679859.070  
G22  20883008.231                  
R21  21533960.440                  
G17  21295368.158   111907874.293  
G 9  20297311.130   106663047.452  
R20  18567891.863    99290782.774  
R 5  18632835.494    99603145.922  
G 6  21268458.919   111766474.248  
G31  22913236.285   120409655.650  
G 1  21655751.966   113801715.485  
G19  21041440.765   110573376.955  
R13  21578218.842                  
> 2019  9 17 14 31 31.9960000  0 14                     
G 3  19467792.109   102304048.748  
G23  19349057.459   101679863.159  
G22  20883926.470                  
R21  21532684.820                  
G17  21296101.006   111911727.584  
G 9  20296479.208   106658675.037  
R20  18568010.717    99291416.391  
R 5  18632558.254    99601664.868  
G 6  21267504.985   111761460.008  
G31  22914220.434   120414827.724  
G 1  21657164.500   113809155.902  
G19  21041917.217   110575889.417  
G11  23288952.535                  
R13  21578509.999   115227966.9723 
> 2019  9 17 14 31 32.9960000  0 14                     
G 3  19468100.271   102305666.128  
G23  19349058.559   101679865.866  
G22  20884385.446                  
R21  21532049.091                  
G17  21296468.028   111913654.927  
G 9  20296063.762   106656489.386  
R20  18568070.231    99291734.596  
R 5  18632420.162    99600924.962  
G 6  21267027.914   111758953.347  
G31  22914712.303   120417414.500  
G 1  21657873.127   113812876.439  
G19  21042153.676   110577146.639  
G11  23289795.546                  
R13  21578661.999   115228754.5982 
> 2019  9 17 14 31 34.9960000  0 14                     
G 3  19468716.106   102308901.616  
G23  19349060.827   101679872.432  
G22  20885300.021                  
R21  21530774.903                  
G17  21297204.488   111917511.000  
G 9  20295232.303   106652119.026  
R20  18568189.843    99292373.461  
R 5  18632143.497    99599446.119  
G 6  21266074.050   111753940.662  
G31  22915696.941   120422589.348  
G 1  21659289.570   113820318.099  
G19  21042630.713   110579662.794  
G11  23291478.340                  
R13  21578960.485   115230332.2162 
> 2019  9 17 14 31 41.9960000  0 13                     
G 3  19470872.299   102320235.010  
G23  19349071.079   101679909.757  
G22  20888515.546                  
G17  21299778.744   111931023.083  
G 9  20292325.088   106636834.793  
R20  18568614.259    99294638.681  
R 5  18631178.116    99594283.028  
G 6  21262737.184   111736405.550  
G31  22919144.825   120440717.024  
G 1  21664243.085   113846371.404  
G19  21044312.364   110588490.345  
G11  23297365.773                  
R13  21579997.106   115235879.4961 
> 2019  9 17 14 31 42.9960000  0 13                     
G 3  19471180.653   102321855.481  
G23  19349072.563   101679917.138  
G22  20888973.649                  
G17  21300144.021   111932955.699  
G 9  20291910.043   106634653.105  
R20  18568675.317    99294966.232  
R 5  18631040.312    99593547.281  
G 6  21262260.654   111733901.910  
G31  22919637.723   120443308.945  
G 1  21664950.848   113850094.487  
G19  21044548.980   110589754.248  
G11  23298204.632                  
R13  21580145.660   115236675.598  
> 2019  9 17 14 31 43.9960000  0 13                     
G 3  19471488.964   102323476.215  
G23  19349074.473   101679924.943  
G22  20889432.712                  
G17  21300510.990   111934888.674  
G 9  20291494.702   106632471.737  
R20  18568736.968    99295294.616  
R 5  18630902.708    99592811.919  
G 6  21261784.080   111731398.550  
G31  22920130.753   120445901.276  
G 1  21665658.629   113853817.775  
G19  21044788.685   110591018.833  
G11  23299043.786                  
R13  21580295.828   115237472.566  
> 2019  9 17 14 31 44.9960000  0 13                     
G 3  19471797.073   102325097.223  
G23  19349076.192   101679933.203  
G22  20889890.894                  
G17  21300878.239   111936822.207  
G 9  20291079.535   106630290.768  
R20  18568798.646    99295623.913  
R 5  18630764.973    99592077.008  
G 6  21261307.828   111728895.517  
G31  22920623.931   120448494.130  
G 1  21666363.740   113857541.328  
G19  21045027.448   110592284.087  
G11  23299879.320                  
R13  21580449.075   115238270.291  
> 2019  9 17 14 31 45.9960000  0 13                     
G 3  19472105.427   102326718.532  
G23  19349077.815   101679941.910  
G22  20890349.520                  
G17  21301244.022   111938756.221  
G 9  20290664.543   106628110.172  
R20  18568860.542    99295954.129  
R 5  18630627.614    99591342.469  
G 6  21260831.481   111726392.794  
G31  22921116.900   120451087.474  
G 1  21667077.375   113861265.181  
G19  21045270.058   110593549.992  
G11  23300719.749                  
R13  21580600.735   115239068.952  
> 2019  9 17 14 31 46.9960000  0 13                     
G 3  19472413.755   102328339.968  
G23  19349079.412   101679950.967  
G22  20890809.622                  
G17  21301610.371   111940690.657  
G 9  20290249.402   106625929.834  
R20  18568922.796    99296285.127  
R 5  18630490.150    99590608.214  
G 6  21260355.134   111723890.122  
G31  22921610.156   120453681.190  
G 1  21667783.359   113864989.043  
G19  21045512.058   110594816.424  
G11  23301561.504                  
R13  21580746.820   115239868.241  
> 2019  9 17 14 31 47.9960000  0 13                     
G 3  19472722.074   102329961.756  
G23  19349081.375   101679960.470  
G22  20891269.697                  
G17  21301977.149   111942625.592  
G 9  20289834.200   106623749.894  
R20  18568984.980    99296617.091  
R 5  18630352.695    99589874.400  
G 6  21259879.092   111721387.861  
G31  22922103.038   120456275.403  
G 1  21668494.341   113868713.204  
G19  21045753.316   110596083.533  
G11  23302400.353                  
R13  21580896.403   115240668.390  
> 2019  9 17 14 31 48.9960000  0 13                     
G 3  19473030.743   102331584.022  
G23  19349083.373   101679970.634  
G22  20891727.363                  
G17  21302345.793   111944561.157  
G 9  20289419.470   106621570.558  
R20  18569047.050    99296950.205  
R 5  18630215.597    99589141.219  
G 6  21259402.727   111718886.117  
G31  22922596.286   120458870.355  
G 1  21669203.719   113872437.808  
G19  21045997.915   110597351.493  
G11  23303241.271                  
R13  21581046.833   115241469.611  
> 2019  9 17 14 31 49.9960000  0 13                     
G 3  19473339.420   102333206.574  
G23  19349085.153   101679981.206  
G22  20892187.037                  
G17  21302712.894   111946497.267  
G 9  20289004.870   106619391.534  
R20  18569109.504    99297284.162  
R 5  18630078.595    99588408.388  
G 6  21258926.450   111716384.541  
G31  22923089.542   120461465.703  
G 1  21669908.350   113876162.657  
G19  21046236.128   110598620.118  
G11  23304078.794                  
R13  21581197.044   115242271.638  
> 2019  9 17 14 31 51.9960000  0 13                     
G 3  19473956.468   102336452.839  
G23  19349089.629   101680004.089  
G22  20893106.140                  
G17  21303445.201   111950371.350  
G 9  20288175.313   106615035.022  
R20  18569234.876    99297955.171  
R 5  18629805.421    99586944.305  
G 6  21257974.366   111711382.721  
G31  22924076.561   120466658.337  
G 1  21671331.014   113883613.294  
G19  21046722.667   110601159.642  
G11  23305758.124                  
R13  21581498.052   115243878.428  
> 2019  9 17 14 31 52.9960000  0 13                     
G 3  19474265.354   102338076.586  
G23  19349092.691   101680016.398  
G22  20893569.374                  
G17  21303815.643   111952309.350  
G 9  20287760.608   106612857.494  
R20  18569297.976    99298292.256  
R 5  18629668.899    99586213.039  
G 6  21257498.079   111708882.414  
G31  22924570.019   120469255.590  
G 1  21672038.673   113887339.158  
G19  21046964.239   110602430.542  
G11  23306596.092                  
R13  21581648.848   115244683.297  
> 2019  9 17 14 31 54.9960000  0 13                     
G 3  19474882.359   102341324.722  
G23  19349096.679   101680042.140  
G22  20894488.939                  
G17  21304553.769   111956186.560  
G 9  20286931.609   106608503.421  
R20  18569424.830    99298968.940  
R 5  18629396.065    99584751.462  
G 6  21256546.659   111703882.525  
G31  22925557.108   120474451.338  
G 1  21673456.320   113894791.441  
G19  21047445.010   110604974.178  
G11  23308271.200                  
R13  21581950.483   115246295.227  
> 2019  9 17 14 31 55.9960000  0 13                     
G 3  19475191.019   102342949.103  
G23  19349098.825   101680055.528  
G22  20894948.482                  
G17  21304922.309   111958125.804  
G 9  20286517.498   106606326.761  
R20  18569488.401    99299308.466  
R 5  18629259.238    99584021.079  
G 6  21256069.901   111701382.818  
G31  22926050.338   120477049.757  
G 1  21674164.423   113898517.738  
G19  21047687.760   110606246.786  
G11  23309110.878                  
R13  21582103.182   115247102.258  
> 2019  9 17 14 31 56.9960000  0 13                     
G 3  19475500.376   102344573.721  
G23  19349101.661   101680069.335  
G22  20895408.373                  
G17  21305294.200   111960065.429  
G 9  20286103.125   106604150.461  
R20  18569551.990    99299648.891  
R 5  18629122.603    99583291.105  
G 6  21255589.200   111698883.389  
G31  22926537.897   120479648.672  
G 1  21674873.138   113902244.266  
G19  21047932.246   110607520.037  
G11  23309950.312                  
R13  21582250.601   115247910.060  
> 2019  9 17 14 31 58.9960000  0 13                     
G 3  19476118.681   102347824.158  
G23  19349106.809   101680098.637  
G22  20896335.600                  
G17  21306030.904   111963946.654  
G 9  20285274.519   106599799.364  
R20  18569679.786    99300332.896  
R 5  18628849.350    99581832.804  
G 6  21254638.137   111693885.750  
G31  22927519.891   120484848.250  
G 1  21676291.805   113909698.412  
G19  21048415.425   110610068.868  
G11  23311625.542                  
R13  21582551.094   115249528.572  
> 2019  9 17 14 31 59.9960000  0 13                     
G 3  19476427.960   102349449.879  
G23  19349110.936   101680113.979  
G22  20896794.409                  
G17  21306396.050   111965888.068  
G 9  20284860.609   106597624.429  
R20  18569744.134    99300676.299  
R 5  18628712.994    99581104.308  
G 6  21254163.107   111691387.410  
G31  22928011.612   120487448.917  
G 1  21677003.478   113913425.840  
G19  21048658.062   110611344.318  
G11  23312463.074                  
R13  21582704.917   115250339.056  
> 2019  9 17 14 32  0.9960000  0 13                     
G 3  19476736.881   102351075.949  
G23  19349114.853   101680130.012  
G22  20897255.008                  
G17  21306762.051   111967830.070  
G 9  20284446.925   106595450.004  
R20  18569808.455    99301020.754  
R 5  18628576.786    99580376.377  
G 6  21253686.524   111688889.494  
G31  22928507.137   120490050.100  
G 1  21677713.353   113917153.643  
G19  21048901.056   110612620.583  
G11  23313301.269                  
R13  21582859.273   115251150.606  
> 2019  9 17 14 32  2.9960000  0 13                     
G 3  19477351.033   102354329.695  
G23  19349119.539   101680163.852  
G22  20898175.463                  
G17  21307503.005   111971716.323  
G 9  20283619.663   106591102.897  
R20  18569937.954    99301713.045  
R 5  18628304.528    99578922.260  
G 6  21252737.398   111683895.136  
G31  22929467.920   120495254.676  
G 1  21679130.834   113924610.625  
G19  21049386.521   110615175.645  
G11  23314977.179                  
R13  21583163.631   115252776.738  
> 2019  9 17 14 32  3.9960000  0 13                     
G 3  19477665.686   102355957.037  
G23  19349121.606   101680181.608  
G22  20898637.929                  
G17  21307871.728   111973660.218  
G 9  20283206.416   106588930.036  
R20  18570002.982    99302060.699  
R 5  18628168.669    99578195.916  
G 6  21252262.290   111681398.541  
G31  22929958.253   120497857.859  
G 1  21679838.056   113928339.616  
G19  21049629.803   110616454.277  
G11  23315815.828                  
R13  21583314.916   115253591.147  
> 2019  9 17 14 32  4.9960000  0 13                     
G 3  19477968.561   102357584.682  
G23  19349123.456   101680199.611  
G22  20899099.391                  
G17  21308242.379   111975604.536  
G 9  20282793.090   106586757.420  
R20  18570068.115    99302409.100  
R 5  18628032.426    99577469.845  
G 6  21251787.347   111678902.098  
G31  22930454.328   120500461.292  
G 1  21680546.570   113932068.664  
G19  21049873.644   110617733.452  
G11  23316654.494                  
R13  21583462.257   115254406.321  
> 2019  9 17 14 32  5.9960000  0 13                     
G 3  19478279.114   102359212.467  
G23  19349126.876   101680218.038  
G22  20899559.152                  
G17  21308613.702   111977549.260  
G 9  20282379.764   106584585.101  
R20  18570133.239    99302758.328  
R 5  18627896.795    99576744.095  
G 6  21251312.326   111676405.889  
G31  22930948.082   120503065.228  
G 1  21681256.794   113935797.899  
G19  21050117.694   110619013.177  
G11  23317492.636                  
R13  21583611.701   115255222.187  
> 2019  9 17 14 32  7.9960000  0 13                     
G 3  19478900.568   102362468.832  
G23  19349133.298   101680256.252  
G22  20900478.901                  
G17  21309352.012   111981440.264  
G 9  20281553.592   106580241.619  
R20  18570264.430    99303459.596  
R 5  18627625.409    99575293.828  
G 6  21250363.052   111671414.266  
G31  22931937.003   120508274.558  
G 1  21682678.027   113943257.044  
G19  21050605.375   110621574.623  
G11  23319169.061                  
R13  21583917.655   115256856.487  
> 2019  9 17 14 32  8.9960000  0 13                     
G 3  19479213.704   102364097.569  
G23  19349136.823   101680276.095  
G22  20900941.061                  
G17  21309720.063   111983386.581  
G 9  20281140.510   106578070.488  
R20  18570330.496    99303811.663  
R 5  18627489.507    99574569.354  
G 6  21249890.544   111668918.977  
G31  22932429.440   120510879.960  
G 1  21683389.167   113946987.064  
G19  21050849.146   110622856.423  
G11  23320007.780                  
R13  21584072.168   115257674.870  
> 2019  9 17 14 32  9.9960000  0 13                     
G 3  19479521.037   102365726.585  
G23  19349140.217   101680296.389  
G22  20901401.223                  
G17  21310091.552   111985333.344  
G 9  20280727.734   106575899.755  
R20  18570396.702    99304164.683  
R 5  18627354.075    99573845.327  
G 6  21249415.060   111666423.948  
G31  22932925.357   120513485.945  
G 1  21684100.542   113950717.242  
G19  21051093.135   110624138.805  
G11  23320845.399                  
R13  21584223.837   115258494.113  
> 2019  9 17 14 32 12.9960000  0 13                     
G 3  19480450.313   102370614.940  
G23  19349151.464   101680359.567  
G22  20902783.961                  
G17  21311208.000   111991176.366  
G 9  20279489.615   106569389.484  
R20  18570596.167    99305228.730  
R 5  18626948.070    99571675.196  
G 6  21247991.009   111658940.407  
G31  22934421.696   120521306.341  
G 1  21686232.784   113961909.027  
G19  21051825.547   110627989.651  
G11  23323359.496                  
R13  21584683.694   115260956.499  
> 2019  9 17 14 32 13.9960000  0 13                     
G 3  19480763.048   102372244.986  
G23  19349155.242   101680381.535  
G22  20903245.720                  
G17  21311580.230   111993125.027  
G 9  20279076.935   106567220.172  
R20  18570662.923    99305585.284  
R 5  18626812.935    99570952.622  
G 6  21247518.056   111656446.494  
G31  22934922.622   120523914.162  
G 1  21686943.305   113965640.075  
G19  21052070.138   110629274.639  
G11  23324198.903                  
R13  21584832.143   115261779.018  
> 2019  9 17 14 32 14.9960000  0 13                     
G 3  19481070.808   102373875.370  
G23  19349158.732   101680404.001  
G22  20903706.310                  
G17  21311951.283   111995074.232  
G 9  20278663.810   106565051.271  
R20  18570730.132    99305942.753  
R 5  18626677.670    99570230.477  
G 6  21247040.461   111653952.877  
G31  22935423.408   120526522.508  
G 1  21687654.113   113969371.444  
G19  21052314.912   110630560.301  
G11  23325037.273                  
R13  21584990.242   115262602.328  
> 2019  9 17 14 32 15.9960000  0 13                     
G 3  19481380.663   102375506.046  
G23  19349162.684   101680426.943  
G22  20904165.512                  
G17  21312328.077   111997023.957  
G 9  20278250.929   106562882.764  
R20  18570797.255    99306301.144  
R 5  18626542.823    99569508.796  
G 6  21246566.312   111651459.591  
G31  22935924.710   120529131.337  
G 1  21688364.145   113973103.053  
G19  21052559.747   110631846.640  
G11  23325876.131                  
R13  21585142.617   115263426.458  
> 2019  9 17 14 32 16.9960000  0 13                     
G 3  19481691.792   102377136.602  
G23  19349166.907   101680449.939  
G22  20904624.444                  
G17  21312699.104   111998973.880  
G 9  20277838.432   106560714.256  
R20  18570864.080    99306660.101  
R 5  18626407.776    99568787.156  
G 6  21246093.385   111648966.236  
G31  22936431.743   120531740.276  
G 1  21689074.448   113976834.505  
G19  21052804.504   110633133.199  
G11  23326713.646                  
R13  21585297.880   115264251.103  
> 2019  9 17 14 32 17.9960000  0 13                     
G 3  19482000.512   102378767.564  
G23  19349171.339   101680473.440  
G22  20905082.242                  
G17  21313071.840   112000924.256  
G 9  20277425.883   106558546.172  
R20  18570931.639    99307020.025  
R 5  18626272.947    99568065.957  
G 6  21245617.901   111646473.198  
G31  22936937.040   120534349.823  
G 1  21689784.349   113980566.199  
G19  21053049.505   110634420.493  
G11  23327552.547                  
R13  21585451.303   115265076.648  
> 2019  9 17 14 32 18.9960000  0 13                     
G 3  19482310.760   102380398.809  
G23  19349175.397   101680497.429  
G22  20905541.741                  
G17  21313444.603   112002875.176  
G 9  20277013.691   106556378.533  
R20  18570999.285    99307380.914  
R 5  18626137.909    99567345.185  
G 6  21245150.523   111643980.488  
G31  22937435.750   120536959.751  
G 1  21690489.974   113984298.227  
G19  21053294.532   110635708.500  
G11  23328389.774                  
R13  21585606.958   115265902.890  
> 2019  9 17 14 32 19.9960000  0 13                     
G 3  19482620.841   102382030.218  
G23  19349179.628   101680521.776  
G22  20906001.598                  
G17  21313817.540   112004826.537  
G 9  20276601.718   106554211.174  
R20  18571066.904    99307742.634  
R 5  18626003.149    99566624.718  
G 6  21244674.996   111641487.959  
G31  22937937.653   120539570.199  
G 1  21691203.959   113988030.393  
G19  21053539.725   110636997.077  
G11  23329226.617                  
R13  21585763.199   115266730.065  
> 2019  9 17 14 32 20.9960000  0 13                     
G 3  19482931.481   102383661.901  
G23  19349184.148   101680546.555  
G22  20906461.385                  
G17  21314192.964   112006778.342  
G 9  20276189.395   106552044.149  
R20  18571135.012    99308105.221  
R 5  18625868.756    99565904.584  
G 6  21244199.094   111638995.698  
G31  22938434.156   120542181.164  
G 1  21691913.485   113991762.730  
G19  21053785.311   110638286.272  
G11  23330065.928                  
R13  21585917.267   115267557.932  
> 2019  9 17 14 32 21.9960000  0 13                     
G 3  19483239.015   102385294.061  
G23  19349188.833   101680571.883  
G22  20906922.900                  
G17  21314565.605   112008730.764  
G 9  20275777.491   106549877.623  
R20  18571203.121    99308468.818  
R 5  18625734.329    99565184.995  
G 6  21243723.375   111636503.878  
G31  22938935.090   120544792.589  
G 1  21692626.597   113995495.409  
G19  21054030.888   110639576.213  
G11  23330904.621                  
R13  21586073.473   115268386.794  
> 2019  9 17 14 32 22.9960000  0 13                     
G 3  19483552.884   102386926.464  
G23  19349193.248   101680597.685  
G22  20907384.833                  
G17  21314935.916   112010683.695  
G 9  20275365.396   106547711.492  
R20  18571271.569    99308833.344  
R 5  18625599.910    99564465.848  
G 6  21243248.214   111634012.409  
G31  22939432.832   120547404.643  
G 1  21693335.363   113999228.374  
G19  21054276.569   110640866.848  
G11  23331742.755                  
R13  21586228.736   115269216.495  
> 2019  9 17 14 32 23.9960000  0 13                     
G 3  19483862.948   102388559.125  
G23  19349197.681   101680623.847  
G22  20907845.397                  
G17  21315310.302   112012637.051  
G 9  20274953.091   106545545.672  
R20  18571339.913    99309198.733  
R 5  18625465.150    99563747.054  
G 6  21242777.390   111631521.160  
G31  22939929.770   120550017.081  
G 1  21694046.259   114002961.506  
G19  21054522.390   110642157.994  
G11  23332580.383                  
R13  21586382.752   115270046.903  
> 2019  9 17 14 32 24.9960000  0 13                     
G 3  19484172.331   102390191.917  
G23  19349202.663   101680650.416  
G22  20908304.617                  
G17  21315683.867   112014590.868  
G 9  20274540.690   106543380.164  
R20  18571408.387    99309564.960  
R 5  18625330.749    99563028.588  
G 6  21242303.590   111629030.070  
G31  22940427.154   120552629.939  
G 1  21694756.884   114006694.759  
G19  21054768.124   110643449.791  
G11  23333415.472                  
R13  21586538.172   115270878.097  
> 2019  9 17 14 32 26.9960000  0 12                     
G 3  19484794.606   102393458.255  
G23  19349212.618   101680704.642  
G22  20909224.261                  
G17  21316431.051   112018499.711  
G 9  20273716.193   106539050.051  
R20  18571545.991    99310299.905  
R 5  18625061.981    99561592.546  
G 6  21241358.164   111624048.594  
G31  22941422.575   120557856.858  
G 1  21696178.091   114014161.825  
G19  21055260.308   110646035.100  
R13  21586845.680   115272542.766  
> 2019  9 17 14 32 28.9960000  0 13                     
G 3  19485415.110   102396725.804  
G23  19349223.411   101680760.742  
G22  20910144.262                  
G17  21317172.589   112022410.614  
G 9  20272892.028   106534721.530  
R20  18571683.839    99311038.604  
R 5  18624793.806    99560158.170  
G 6  21240409.221   111619068.361  
G31  22942418.625   120563085.792  
G 1  21697599.254   114021629.886  
G19  21055752.701   110648623.096  
G11  23336757.729                  
R13  21587159.295   115274210.845  
> 2019  9 17 14 32 30.9960000  0 13                     
G 3  19486039.810   102399994.726  
G23  19349233.846   101680818.899  
G22  20911065.503                  
G17  21317920.008   112026323.776  
G 9  20272068.893   106530394.766  
R20  18571822.900    99311781.218  
R 5  18624525.945    99558725.701  
G 6  21239462.320   111614089.524  
G31  22943415.442   120568316.990  
G 1  21699021.046   114029099.117  
G19  21056245.966   110651213.980  
G11  23338429.949                  
R13  21587474.245   115275882.476  
> 2019  9 17 14 32 32.9960000  0 12                     
G 3  19486662.853   102403265.532  
G23  19349245.006   101680879.542  
G22  20911983.053                  
G17  21318664.714   112030239.579  
G 9  20271245.775   106526070.245  
R20  18571962.432    99312528.245  
R 5  18624258.607    99557295.616  
G 6  21238516.326   111609112.672  
G31  22944412.740   120573550.804  
G 1  21700442.837   114036569.976  
G19  21056739.476   110653808.171  
R13  21587788.218   115277558.146  
> 2019  9 17 14 32 33.9960000  0 13                     
G 3  19486978.920   102404901.226  
G23  19349250.581   101680910.391  
G22  20912442.369                  
G17  21319038.227   112032198.097  
G 9  20270834.272   106523908.391  
R20  18572032.268    99312902.937  
R 5  18624125.148    99556581.001  
G 6  21238043.338   111606624.424  
G31  22944911.467   120576168.305  
G 1  21701153.925   114040305.629  
G19  21056986.387   110655106.092  
G11  23340942.902                  
R13  21587944.075   115278396.983  
> 2019  9 17 14 32 34.9960000  0 13                     
G 3  19487283.470   102406537.190  
G23  19349256.435   101680941.696  
G22  20912901.484                  
G17  21319411.251   112034157.108  
G 9  20270422.892   106521746.928  
R20  18572102.400    99313278.546  
R 5  18623991.567    99555866.762  
G 6  21237570.585   111604136.494  
G31  22945410.456   120578786.318  
G 1  21701864.367   114044041.448  
G19  21057233.273   110656404.679  
G11  23341779.082                  
R13  21588101.912   115279236.728  
> 2019  9 17 14 32 35.9960000  0 12                     
G 3  19487596.623   102408173.403  
G23  19349262.482   101680973.410  
G22  20913362.745                  
G17  21319784.197   112036116.533  
G 9  20270011.407   106519585.795  
R20  18572172.594    99313655.071  
R 5  18623857.881    99555152.870  
G 6  21237097.990   111601648.939  
G31  22945909.768   120581404.739  
G 1  21702575.367   114047777.538  
G19  21057480.150   110657703.821  
R13  21588259.496   115280077.267  
> 2019  9 17 14 32 36.9960000  0 12                     
G 3  19487906.015   102409809.959  
G23  19349268.616   101681005.622  
G22  20913823.073                  
G17  21320157.117   112038076.588  
G 9  20269600.062   106517425.102  
R20  18572242.909    99314032.540  
R 5  18623724.247    99554439.455  
G 6  21236626.197   111599161.678  
G31  22946408.661   120584023.739  
G 1  21703286.210   114051513.866  
G19  21057727.393   110659003.781  
R13  21588416.662   115280918.693  
> 2019  9 17 14 32 37.9960000  0 12                     
G 3  19488220.660   102411446.883  
G23  19349274.924   101681038.351  
G22  20914282.765                  
G17  21320529.993   112040037.166  
G 9  20269188.944   106515264.871  
R20  18572313.862    99314411.054  
R 5  18623590.918    99553726.571  
G 6  21236155.093   111596674.740  
G31  22946907.920   120586643.296  
G 1  21703997.316   114055250.537  
G19  21057974.759   110660304.362  
R13  21588574.944   115281760.977  
> 2019  9 17 14 32 38.9960000  0 12                     
G 3  19488533.403   102413084.035  
G23  19349280.953   101681071.531  
G22  20914744.454                  
G17  21320903.446   112041998.206  
G 9  20268777.651   106513104.984  
R20  18572384.910    99314790.417  
R 5  18623457.808    99553014.057  
G 6  21235680.761   111594188.160  
G31  22947407.092   120589263.319  
G 1  21704708.543   114058987.386  
G19  21058222.439   110661605.673  
R13  21588735.268   115282604.092  
> 2019  9 17 14 32 40.9960000  0 12                     
G 3  19489152.946   102416358.820  
G23  19349293.788   101681138.771  
G22  20915666.261                  
G17  21321649.748   112045921.385  
G 9  20267955.265   106508785.898  
R20  18572527.313    99315551.468  
R 5  18623191.745    99551589.797  
G 6  21234730.396   111589215.301  
G31  22948405.585   120594504.372  
G 1  21706131.093   114066461.356  
G19  21058717.868   110664209.709  
R13  21589055.322   115284292.393  
> 2019  9 17 14 32 41.9960000  0 12                     
G 3  19489465.393   102417996.737  
G23  19349300.157   101681173.146  
G22  20916124.644                  
G17  21322023.113   112047883.798  
G 9  20267544.505   106506627.028  
R20  18572598.632    99315933.426  
R 5  18623058.565    99550878.337  
G 6  21234257.138   111586729.377  
G31  22948904.958   120597125.722  
G 1  21706842.094   114070198.794  
G19  21058965.896   110665512.833  
R13  21589210.088   115285137.870  
> 2019  9 17 14 32 42.9960000  0 12                     
G 3  19489779.165   102419635.055  
G23  19349307.085   101681208.092  
G22  20916587.266                  
G17  21322396.661   112049846.788  
G 9  20267133.447   106504468.634  
R20  18572669.916    99316316.422  
R 5  18622925.777    99550167.385  
G 6  21233782.631   111584243.946  
G31  22949404.549   120599747.676  
G 1  21707553.356   114073936.572  
G19  21059213.768   110666816.653  
R13  21589370.351   115285984.330  
> 2019  9 17 14 32 44.9960000  0 12                     
G 3  19490406.413   102422912.705  
G23  19349320.609   101681279.469  
G22  20917510.095                  
G17  21323144.560   112053774.441  
G 9  20266312.476   106500153.164  
R20  18572813.645    99317085.305  
R 5  18622660.263    99548746.823  
G 6  21232835.259   111579274.029  
G31  22950403.740   120604993.202  
G 1  21708976.447   114081412.979  
G19  21059710.471   110669426.507  
R13  21589691.732   115287679.786  
> 2019  9 17 14 32 45.9960000  0 12                     
G 3  19490719.706   102424551.915  
G23  19349327.545   101681315.875  
G22  20917972.386                  
G17  21323516.467   112055739.017  
G 9  20265902.090   106497996.008  
R20  18572885.958    99317471.158  
R 5  18622527.302    99548037.194  
G 6  21232363.859   111576789.522  
G31  22950903.715   120607616.723  
G 1  21709687.797   114085151.533  
G19  21059959.067   110670732.441  
R13  21589849.761   115288528.723  
> 2019  9 17 14 32 46.9960000  0 12                     
G 3  19491033.077   102426191.513  
G23  19349334.604   101681352.685  
G22  20918433.945                  
G17  21323883.873   112057704.134  
G 9  20265491.618   106495839.245  
R20  18572958.150    99317857.948  
R 5  18622394.680    99547327.977  
G 6  21231892.310   111574305.337  
G31  22951403.620   120610240.725  
G 1  21710399.390   114088890.351  
G19  21060208.055   110672038.944  
R13  21590012.388   115289378.552  
> 2019  9 17 14 32 47.9960000  0 12                     
G 3  19491341.431   102427831.319  
G23  19349341.688   101681389.971  
G22  20918895.354                  
G17  21324256.505   112059669.692  
G 9  20265081.729   106493682.835  
R20  18573030.176    99318245.583  
R 5  18622261.962    99546619.108  
G 6  21231420.867   111571821.413  
G31  22951903.394   120612865.198  
G 1  21711110.801   114092629.323  
G19  21060457.218   110673346.137  
R13  21590167.076   115290229.145  
