     3.02           OBSERVATION DATA    M: Mixed            RINEX VERSION / TYPE
CONVBIN 2.4.2                           20190917 140918 UTC PGM / RUN BY / DATE 
log: ./output_ubx/raw_obs_test_lollo_17-9-2019_16:7.ubx     COMMENT             
format: u-blox                                              COMMENT             
                                                            MARKER NAME         
                                                            MARKER NUMBER       
                                                            MARKER TYPE         
                                                            OBSERVER / AGENCY   
                                                            REC # / TYPE / VERS 
                                                            ANT # / TYPE        
        0.0000        0.0000        0.0000                  APPROX POSITION XYZ 
        0.0000        0.0000        0.0000                  ANTENNA: DELTA H/E/N
G    2 C1C L1C                                              SYS / # / OBS TYPES 
R    2 C1C L1C                                              SYS / # / OBS TYPES 
E    2 C1C L1C                                              SYS / # / OBS TYPES 
J    2 C1C L1C                                              SYS / # / OBS TYPES 
S    2 C1C L1C                                              SYS / # / OBS TYPES 
C    2 C1I L1I                                              SYS / # / OBS TYPES 
  2019     9    17    14     7   34.9950000     GPS         TIME OF FIRST OBS   
  2019     9    17    14     9   35.9950000     GPS         TIME OF LAST OBS    
G                                                           SYS / PHASE SHIFT   
R                                                           SYS / PHASE SHIFT   
E                                                           SYS / PHASE SHIFT   
J                                                           SYS / PHASE SHIFT   
S                                                           SYS / PHASE SHIFT   
C                                                           SYS / PHASE SHIFT   
  0                                                         GLONASS SLOT / FRQ #
 C1C    0.000 C1P    0.000 C2C    0.000 C2P    0.000        GLONASS COD/PHS/BIS 
                                                            END OF HEADER       
> 2019  9 17 14  7 34.9950000  0 11                     
G 3  19087962.511   100307767.984  
G23  19442603.217   102171504.232  
G22  20270101.869                  
G17  20878590.107   109717666.808  
G 9  20968343.687   110189339.326  
R20  18660324.794    99785054.819  
R 5  18915206.498   101112580.072  
R 3  21938285.911                  
G 6  22005875.385                  
G31  22315629.061                  
G18  22760396.992                  
> 2019  9 17 14  7 35.9950000  0 11                     
G 3  19088182.733   100308924.082  
G23  19442471.721   102170815.129  
G22  20270495.284                  
G17  20878800.766   109718772.885  
G 9  20967827.527   110186629.163  
R20  18660140.467    99784069.343  
R 5  18914949.526   101111213.989  
R 3  21939001.519                  
G 6  22005330.703                  
G31  22315967.072                  
G18  22761192.259                  
> 2019  9 17 14  7 36.9950000  0 11                     
G 3  19088402.937   100310080.557  
G23  19442339.972   102170126.553  
G22  20270886.466                  
G17  20879011.337   109719879.567  
G 9  20967311.734   110183919.333  
R20  18659956.673    99783084.754  
R 5  18914693.854   101109848.430  
R 3  21939714.622                  
G 6  22004785.724                  
G31  22316303.844                  
G18  22761988.120                  
> 2019  9 17 14  7 37.9950000  0 11                     
G 3  19088623.194   100311237.329  
G23  19442208.728   102169438.398  
G22  20271278.057                  
G17  20879222.171   109720986.814  
G 9  20966796.080   110181209.810  
R20  18659772.678    99782100.991  
R 5  18914439.081   101108483.215  
R 3  21940430.648                  
G 6  22004240.579                  
G31  22316639.708                  
G18  22762782.332                  
> 2019  9 17 14  7 38.9950000  0 10                     
G 3  19088843.302   100312394.464  
G23  19442077.738   102168750.783  
G17  20879433.240   109722094.720  
G 9  20966280.365   110178500.663  
R20  18659588.971    99781118.154  
R 5  18914183.575   101107118.520  
R 3  21941143.856                  
G 6  22003697.843                  
G31  22316974.953                  
G18  22763578.437                  
> 2019  9 17 14  7 40.9950000  0 11                     
G 3  19089284.112   100314709.255  
G23  19441816.605   102167376.549  
G17  20879855.719   109724311.946  
G 1  20700937.877                  
G 9  20965249.415   110173082.894  
R20  18659221.836    99779154.600  
R 5  18913673.671   101104389.919  
R 3  21942574.442                  
G 6  22002609.150                  
G31  22317651.210                  
G18  22765164.443                  
> 2019  9 17 14  7 41.9950000  0 12                     
G 3  19089504.605   100315867.306  
G23  19441686.138   102166690.317  
G22  20272856.752                  
G17  20880066.919   109725421.606  
G 1  20701571.407   108787491.3132 
G 9  20964733.944   110170374.632  
R20  18659038.739    99778174.222  
R 5  18913418.531   101103026.438  
R 3  21943289.552                  
G 6  22002065.444                  
G31  22317992.214                  
G18  22765960.165                  
> 2019  9 17 14  7 42.9950000  0 12                     
G 3  19089725.001   100317025.692  
G23  19441555.663   102166004.537  
G22  20273251.651                  
G17  20880278.136   109726531.841  
G 1  20702192.836   108790772.5722 
G 9  20964218.726   110167666.680  
R20  18658855.250    99777194.713  
R 5  18913163.740   101101663.400  
R 3  21944003.964                  
G 6  22001521.050                  
G31  22318329.701                  
G18  22766754.359                  
> 2019  9 17 14  7 43.9950000  0 12                     
G 3  19089945.380   100318184.378  
G23  19441425.659   102165319.222  
G22  20273644.857                  
G17  20880489.449   109727642.680  
G 1  20702818.993   108794054.3002 
G 9  20963703.430   110164959.025  
R20  18658672.293    99776216.017  
R 5  18912908.836   101100300.761  
R 3  21944719.754                  
G 6  22000977.642                  
G31  22318669.509                  
G18  22767547.995                  
> 2019  9 17 14  7 44.9950000  0 11                     
G 3  19090165.994   100319343.349  
G23  19441295.602   102164634.372  
G17  20880700.745   109728754.141  
G 1  20703445.002   108797336.2912 
G 9  20963188.125   110162251.689  
R20  18658489.345    99775238.196  
R 5  18912653.967   101098938.564  
R 3  21945432.212                  
G 6  22000430.839                  
G31  22319008.034                  
G18  22768345.025                  
> 2019  9 17 14  7 45.9950000  0 11                     
G 3  19090386.233   100320502.474  
G23  19441165.589   102163949.874  
G17  20880912.312   109729866.035  
G 1  20704070.976   108800618.4912 
G 9  20962672.672   110159544.526  
R20  18658306.441    99774261.089  
R 5  18912399.334   101097576.625  
R 3  21946145.830                  
G 6  21999886.357                  
G31  22319347.598                  
G18  22769140.179                  
> 2019  9 17 14  7 46.9950000  0 11                     
G 3  19090606.961   100321661.936  
G23  19441035.777   102163265.790  
G17  20881123.896   109730978.466  
G 1  20704695.424   108803901.0162 
G 9  20962157.585   110156837.633  
R20  18658123.597    99773284.770  
R 5  18912144.691   101096215.153  
R 3  21946859.858                  
G 6  21999340.628                  
G31  22319685.522                  
G18  22769934.059                  
> 2019  9 17 14  7 47.9950000  0 11                     
G 3  19090827.453   100322821.794  
G23  19440905.930   102162582.257  
G17  20881335.453   109732091.622  
G 1  20705317.751   108807183.8792 
G 9  20961642.577   110154131.144  
R20  18657941.400    99772309.411  
R 5  18911890.267   101094854.076  
R 3  21947573.266                  
G 6  21998792.962                  
G31  22320025.522                  
G18  22770728.175                  
> 2019  9 17 14  7 49.9950000  0 11                     
G 3  19091268.830   100325141.922  
G23  19440646.690   102161216.100  
G17  20881759.101   109734319.166  
G 1  20706569.708   108813750.2222 
G 9  20960612.857   110148718.583  
R20  18657577.057    99770360.657  
R 5  18911381.236   101092132.826  
R 3  21949003.032                  
G 6  21997702.855                  
G31  22320701.979                  
G18  22772324.111                  
> 2019  9 17 14  7 50.9950000  0 11                     
G 3  19091490.134   100326302.466  
G23  19440517.052   102160533.740  
G17  20881971.339   109735433.847  
G 1  20707198.771   108817033.9492 
G 9  20960097.779   110146012.810  
R20  18657394.815    99769387.550  
R 5  18911126.515   101090772.846  
R 3  21949716.641                  
G 6  21997156.183                  
G31  22321042.206                  
G18  22773121.830                  
> 2019  9 17 14  7 51.9950000  0 11                     
G 3  19091711.220   100327463.534  
G23  19440387.711   102159852.048  
G17  20882183.490   109736549.325  
G 1  20707822.913   108820318.1872 
G 9  20959583.085   110143307.533  
R20  18657213.525    99768415.493  
R 5  18910872.248   101089413.523  
R 3  21950430.844                  
G 6  21996612.670                  
G31  22321382.389                  
G18  22773918.642                  
> 2019  9 17 14  7 52.9950000  0 11                     
G 3  19091932.279   100328625.044  
G23  19440258.169   102159170.955  
G17  20882395.458   109737665.528  
G 1  20708450.711   108823602.8582 
G 9  20959068.373   110140602.693  
R20  18657031.929    99767444.419  
R 5  18910618.085   101088054.739  
R 3  21951144.985                  
G 6  21996067.970                  
G31  22321720.732                  
G18  22774716.195                  
> 2019  9 17 14  7 53.9950000  0 11                     
G 3  19092153.356   100329787.052  
G23  19440128.671   102158490.510  
G17  20882607.766   109738782.506  
G 1  20709071.842   108826888.1262 
G 9  20958553.766   110137898.350  
R20  18656850.683    99766474.382  
R 5  18910364.106   101086696.582  
R 3  21951858.106                  
G 6  21995524.693                  
G31  22322061.238                  
G18  22775512.693                  
> 2019  9 17 14  7 54.9950000  0 11                     
G 3  19092374.467   100330949.500  
G23  19439999.496   102157810.669  
G17  20882820.397   109739900.181  
G 1  20709697.180   108830173.2731 
G 9  20958039.447   110135194.441  
R20  18656669.488    99765505.328  
R 5  18910109.926   101085338.968  
R 3  21952572.719                  
G 6  21994982.261                  
G31  22322398.245                  
G18  22776311.485                  
> 2019  9 17 14  7 55.9950000  0 11                     
G 3  19092595.701   100332112.447  
G23  19439870.225   102157131.474  
G17  20883033.482   109741018.638  
G 1  20710327.752   108833459.498  
G 9  20957525.024   110132491.028  
R20  18656488.495    99764537.330  
R 5  18909855.999   101083981.944  
R 3  21953285.717                  
G 6  21994437.274                  
G31  22322735.497                  
G18  22777108.847                  
> 2019  9 17 14  7 56.9950000  0 12                     
G 3  19092816.970   100333275.863  
G23  19439741.329   102156452.919  
G17  20883246.017   109742137.847  
G 1  20710953.107   108836746.152  
G 9  20957010.687   110129788.080  
R20  18656307.736    99763570.334  
R 5  18909602.011   101082625.544  
R 3  21953998.515                  
G 6  21993893.063                  
G31  22323074.694                  
G18  22777905.755                  
G19  20837046.827                  
> 2019  9 17 14  7 57.9950000  0 12                     
G 3  19093038.064   100334439.696  
G23  19439612.249   102155774.880  
G17  20883458.979   109743257.717  
G 1  20711580.669   108840033.273  
G 9  20956496.272   110127085.535  
R20  18656127.083    99762604.233  
R 5  18909348.722   101081269.617  
R 3  21954713.433                  
G 6  21993348.790                  
G31  22323413.752                  
G18  22778702.357                  
G19  20837094.806                  
> 2019  9 17 14  7 58.9950000  0 12                     
G 3  19093259.429   100335603.711  
G23  19439483.319   102155097.229  
G17  20883671.523   109744378.117  
G 1  20712204.532   108843320.583  
G 9  20955982.093   110124383.182  
R20  18655946.735    99761638.854  
R 5  18909095.152   101079914.049  
R 3  21955428.464                  
G 6  21992807.031                  
G31  22323752.696   117312111.7952 
G18  22779499.911                  
G19  20837144.077   109499927.6332 
> 2019  9 17 14  7 59.9950000  0 12                     
G 3  19093481.056   100336767.898  
G23  19439354.588   102154419.848  
G17  20883884.712   109745498.932  
G 1  20712828.394   108846608.085  
G 9  20955467.826   110121680.985  
R20  18655766.352    99760674.127  
R 5  18908841.418   101078558.708  
R 3  21956142.990                  
G 6  21992263.334                  
G31  22324091.815   117313895.0922 
G18  22780297.133                  
G19  20837191.803   109500184.0112 
> 2019  9 17 14  8  0.9950000  0 12                     
G 3  19093702.298   100337932.218  
G23  19439226.102   102153742.800  
G17  20884097.727   109746620.152  
G 1  20713454.822   108849895.765  
G 9  20954953.533   110118978.926  
R20  18655586.109    99759710.133  
R 5  18908587.587   101077203.581  
R 3  21956857.367                  
G 6  21991718.704                  
G31  22324431.737   117315678.7692 
G18  22781095.297                  
G19  20837239.416   109500440.8742 
> 2019  9 17 14  8  1.9950000  0 12                     
G 3  19093923.750   100339096.994  
G23  19439097.320   102153066.344  
G17  20884310.899   109747742.123  
G 1  20714083.876   108853183.886  
G 9  20954439.598   110116277.322  
R20  18655406.014    99758747.114  
R 5  18908334.044   101075849.056  
R 3  21957571.726                  
G 6  21991175.540                  
G31  22324772.670   117317463.1582 
G18  22781891.009                  
G19  20837285.180   109500698.6302 
> 2019  9 17 14  8  2.9950000  0 12                     
G 3  19094145.691   100340262.123  
G23  19438968.729   102152390.420  
G17  20884524.132   109748864.758  
G 1  20714706.849   108856472.376  
G 9  20953925.663   110113576.080  
R20  18655226.128    99757785.008  
R 5  18908080.649   101074495.031  
R 3  21958284.829                  
G 6  21990632.341                  
G31  22325113.168   117319248.2322 
G18  22782690.910                  
G19  20837332.688   109500957.1172 
> 2019  9 17 14  8  3.9950000  0 12                     
G 3  19094367.527   100341427.631  
G23  19438840.740   102151714.979  
G17  20884737.574   109749988.000  
G 1  20715335.467   108859761.293  
G 9  20953411.999   110110875.182  
R20  18655046.374    99756823.765  
R 5  18907827.071   101073141.448  
R 3  21958999.084                  
G 6  21990087.580                  
G31  22325455.951   117321033.9552 
G18  22783490.182                  
G19  20837382.866   109501216.3602 
> 2019  9 17 14  8  4.9950000  0 12                     
G 3  19094589.293   100342593.428  
G23  19438712.403   102151040.012  
G17  20884951.130   109751111.834  
G 1  20715961.459   108863050.510  
G 9  20952898.386   110108174.610  
R20  18654866.619    99755863.376  
R 5  18907573.930   101071788.295  
R 3  21959714.656                  
G 6  21989544.608                  
G31  22325797.059   117322820.2522 
G18  22784288.818                  
G19  20837431.831   109501476.3312 
> 2019  9 17 14  8  5.9950000  0 12                     
G 3  19094811.015   100343759.620  
G23  19438585.112   102150365.590  
G17  20885165.087   109752236.320  
G 1  20716587.712   108866340.098  
G 9  20952384.329   110105474.389  
R20  18654687.266    99754903.860  
R 5  18907320.483   101070435.598  
R 3  21960429.566                  
G 6  21989000.004                  
G31  22326137.565   117324607.2492 
G18  22785087.348                  
G19  20837478.214   109501737.0062 
> 2019  9 17 14  8  6.9950000  0 13                     
G 3  19095032.589   100344925.985  
G23  19438457.028   102149691.505  
G22  20282799.712                  
G17  20885378.660   109753361.305  
G 1  20717213.817   108869629.924  
G 9  20951870.490   110102774.379  
R20  18654508.008    99753945.105  
R 5  18907067.708   101069083.274  
R 3  21961143.376                  
G 6  21988455.802                  
G31  22326476.867   117326394.2081 
G18  22785885.364                  
G19  20837527.162   109501998.3582 
> 2019  9 17 14  8  8.9950000  0 13                     
G 3  19095476.724   100347259.799  
G23  19438201.443   102148344.850  
G22  20283591.821                  
G17  20885806.801   109755613.093  
G 1  20718465.844   108876210.736  
G 9  20950843.126   110097375.402  
R20  18654150.017    99752030.233  
R 5  18906561.337   101066379.929  
R 3  21962570.786                  
G 6  21987371.105                  
G31  22327157.094   117329970.945  
G18  22787478.028                  
G19  20837624.089   109502523.2582 
> 2019  9 17 14  8  9.9950000  0 13                     
G 3  19095698.708   100348427.291  
G23  19438073.699   102147672.359  
G22  20283986.100                  
G17  20886020.968   109756740.040  
G 1  20719091.705   108879501.762  
G 9  20950329.479   110094676.499  
R20  18653970.943    99751074.201  
R 5  18906308.597   101065029.049  
R 3  21963286.079                  
G 6  21986827.775                  
G31  22327502.190   117331760.392  
G18  22788275.878                  
G19  20837673.124   109502786.9002 
> 2019  9 17 14  8 10.9950000  0 13                     
G 3  19095921.111   100349595.053  
G23  19437946.138   102147000.238  
G22  20284383.398                  
G17  20886235.422   109757867.489  
G 1  20719718.229   108882793.024  
G 9  20949816.015   110091977.804  
R20  18653791.956    99750118.880  
R 5  18906055.630   101063678.438  
R 3  21964001.477                  
G 6  21986284.488                  
G31  22327841.605   117333550.290  
G18  22789074.330                  
G19  20837724.183   109503051.0932 
> 2019  9 17 14  8 11.9950000  0 13                     
G 3  19096143.933   100350763.115  
G23  19437818.786   102146328.628  
G22  20284777.511                  
G17  20886449.781   109758995.538  
G 1  20720344.552   108886084.630  
G 9  20949302.577   110089279.506  
R20  18653613.336    99749164.483  
R 5  18905802.890   101062328.308  
R 3  21964716.273                  
G 6  21985740.364                  
G31  22328183.926   117335340.848  
G18  22789873.594                  
G19  20837772.712   109503316.1662 
> 2019  9 17 14  8 12.9950000  0 13                     
G 3  19096367.418   100351931.675  
G23  19437691.469   102145657.623  
G22  20285175.865                  
G17  20886664.628   109760124.376  
G 1  20720970.980   108889376.727  
G 9  20948789.375   110086581.627  
R20  18653434.959    99748211.042  
R 5  18905550.341   101060978.735  
R 3  21965431.391                  
G 6  21985194.225                  
G31  22328522.652   117337132.136  
G18  22790671.942                  
G19  20837821.695   109503581.9972 
> 2019  9 17 14  8 13.9950000  0 12                     
G 3  19096589.873   100353100.783  
G23  19437564.466   102144987.376  
G17  20886879.501   109761254.046  
G 1  20721597.844   108892669.454  
G 9  20948276.129   110083884.354  
R20  18653257.020    99747258.755  
R 5  18905297.907   101059629.946  
R 3  21966144.913                  
G 6  21984652.710                  
G31  22328863.219   117338924.302  
G18  22791468.631                  
G19  20837874.072   109503848.7712 
> 2019  9 17 14  8 14.9950000  0 12                     
G 3  19096812.346   100354270.275  
G23  19437437.368   102144317.614  
G17  20887094.523   109762384.303  
G 1  20722224.438   108895962.554  
G 9  20947762.901   110081187.403  
R20  18653079.141    99746307.356  
R 5  18905045.533   101058281.542  
R 3  21966861.184                  
G 6  21984108.926                  
G31  22329202.931   117340717.078  
G18  22792262.904                  
G19  20837923.020   109504116.3902 
> 2019  9 17 14  8 15.9950000  0 12                     
G 3  19097034.853   100355440.120  
G23  19437310.243   102143648.389  
G17  20887309.640   109763515.267  
G 1  20722850.866   108899256.004  
G 9  20947249.707   110078490.836  
R20  18652901.271    99745356.882  
R 5  18904793.848   101056933.656  
R 3  21967575.212                  
G 6  21983565.806                  
G31  22329544.912   117342510.528  
G18  22793058.110                  
G19  20837973.477   109504384.7032 
> 2019  9 17 14  8 16.9950000  0 12                     
G 3  19097257.379   100356610.074  
G23  19437183.127   102142979.451  
G17  20887525.011   109764646.632  
G 1  20723478.280   108902549.663  
G 9  20946736.365   110075794.406  
R20  18652723.680    99744407.075  
R 5  18904541.885   101055586.013  
R 3  21968287.294                  
G 6  21983021.498                  
G31  22329885.296   117344304.410  
G18  22793855.210                  
G19  20838025.165   109504653.6302 
> 2019  9 17 14  8 19.9950000  0 12                     
G 3  19097925.547   100360121.458  
G23  19436802.145   102140974.961  
G17  20888172.021   109768043.819  
G 1  20725359.029   108912432.058  
G 9  20945197.483   110067706.492  
R20  18652191.038    99741562.253  
R 5  18903786.229   101051545.099  
R 3  21970431.350                  
G 6  21981388.795                  
G31  22330908.804   117349689.080  
G18  22796243.691                  
G19  20838175.978   109505463.5111 
> 2019  9 17 14  8 20.9950000  0 12                     
G 3  19098148.553   100361292.425  
G23  19436675.229   102140307.611  
G17  20888388.011   109769177.275  
G 1  20725986.033   108915726.744  
G 9  20944684.647   110065011.038  
R20  18652013.980    99740615.506  
R 5  18903534.553   101050198.858  
R 3  21971145.553                  
G 6  21980845.517                  
G31  22331250.549   117351485.034  
G18  22797041.114                  
G19  20838228.495   109505734.954  
> 2019  9 17 14  8 22.9950000  0 12                     
G 3  19098595.479   100363635.106  
G23  19436421.547   102138974.173  
G17  20888820.140   109771445.792  
G 1  20727240.259   108922316.912  
G 9  20943658.723   110059620.876  
R20  18651660.255    99738724.371  
R 5  18903031.088   101047507.488  
R 3  21972574.019                  
G 6  21979760.716                  
G31  22331933.716   117355078.563  
G18  22798633.115                  
G19  20838331.198   109506279.745  
> 2019  9 17 14  8 23.9950000  0 12                     
G 3  19098818.580   100364807.178  
G23  19436294.623   102138308.368  
G17  20889036.435   109772581.157  
G 1  20727867.228   108925612.724  
G 9  20943145.800   110056926.488  
R20  18651483.737    99737780.291  
R 5  18902779.779   101046162.658  
R 3  21973289.076                  
G 6  21979215.545                  
G31  22332275.845   117356876.489  
G18  22799429.045                  
G19  20838383.636   109506553.425  
> 2019  9 17 14  8 25.9950000  0 12                     
G 3  19099264.599   100367152.129  
G23  19436041.630   102136978.114  
G17  20889469.419   109774853.638  
G 1  20729121.532   108932205.296  
G 9  20942120.565   110051538.598  
R20  18651131.513    99735894.673  
R 5  18902277.379   101043474.214  
R 3  21974720.334                  
G 6  21978130.743                  
G31  22332962.084   117360473.984  
G18  22801021.797                  
G19  20838487.351   109507102.850  
> 2019  9 17 14  8 26.9950000  0 12                     
G 3  19099487.848   100368325.093  
G23  19435914.941   102136313.670  
G17  20889685.889   109775990.678  
G 1  20729748.911   108935502.071  
G 9  20941608.008   110048845.097  
R20  18650955.650    99734953.109  
R 5  18902026.130   101042130.653  
R 3  21975435.959                  
G 6  21977587.640                  
G31  22333304.849   117362273.642  
G18  22801817.675                  
G19  20838541.368                  
> 2019  9 17 14  8 27.9950000  0 12                     
G 3  19099711.307   100369498.454  
G23  19435788.409   102135649.815  
G17  20889902.804   109777128.529  
G 1  20730376.447   108938799.315  
G 9  20941095.626   110046152.027  
R20  18650779.778    99734012.506  
R 5  18901775.144   101040787.585  
R 3  21976150.842                  
G 6  21977042.530                  
G31  22333646.324   117364073.946  
G18  22802612.846                  
G19  20838594.199                  
> 2019  9 17 14  8 29.9950000  0 11                     
G 3  19100158.111   100371845.873  
G23  19435535.922   102134323.253  
G17  20890336.485   109779405.666  
G 1  20731631.623   108945394.491  
G 9  20940070.941   110040766.571  
R20  18650428.348    99732133.620  
R 5  18901273.476   101038102.520  
R 3  21977582.135                  
G 6  21975957.388                  
G31  22334328.156   117367676.144  
G19  20838703.629                  
> 2019  9 17 14  8 30.9950000  0 11                     
G 3  19100381.744   100373020.089  
G23  19435409.452   102133660.708  
G17  20890553.557   109780545.150  
G 1  20732259.255   108948692.579  
G 9  20939558.663   110038074.361  
R20  18650253.061    99731195.460  
R 5  18901022.481   101036760.636  
R 3  21978296.163                  
G 6  21975416.231                  
G31  22334671.393   117369478.196  
G19  20838756.102                  
> 2019  9 17 14  8 32.9950000  0 12                     
G 3  19100828.478   100375369.126  
G23  19435157.078   102132336.691  
G22  20293117.895                  
G17  20890987.884   109782825.567  
G 1  20733514.650   108955289.499  
G 9  20938533.978   110032690.537  
R20  18649902.329    99729321.383  
R 5  18900520.752   101034077.852  
R 3  21979729.550                  
G 6  21974326.639                  
G31  22335357.457   117373083.756  
G19  20838861.920                  
> 2019  9 17 14  8 33.9950000  0 12                     
G 3  19101052.269   100376544.363  
G23  19435030.573   102131675.661  
G22  20293518.648                  
G17  20891205.218   109783966.923  
G 1  20734142.317   108958588.730  
G 9  20938021.700   110029999.342  
R20  18649727.408    99728385.865  
R 5  18900270.001   101032737.328  
R 3  21980446.318                  
G 6  21973783.624                  
G31  22335699.080   117374887.689  
G19  20838912.011                  
> 2019  9 17 14  8 34.9950000  0 12                     
G 3  19101276.077   100377719.899  
G23  19434904.669   102131015.007  
G22  20293915.780                  
G17  20891422.796   109785108.830  
G 1  20734770.132   108961888.207  
G 9  20937509.563   110027308.421  
R20  18649552.740    99727451.151  
R 5  18900019.443   101031397.213  
R 3  21981161.820                  
G 6  21973241.096                  
G31  22336040.782   117376692.037  
G19  20838967.258                  
> 2019  9 17 14  8 35.9950000  0 12                     
G 3  19101499.998   100378895.801  
G23  19434778.653   102130354.937  
G22  20294313.706                  
G17  20891640.383   109786251.349  
G 1  20735398.070   108965188.104  
G 9  20936997.696   110024617.889  
R20  18649378.011    99726517.379  
R 5  18899769.023   101030057.575  
R 3  21981878.187                  
G 6  21972697.321                  
G31  22336383.801   117378497.215  
G19  20839020.970                  
> 2019  9 17 14  8 36.9950000  0 12                     
G 3  19101723.779   100380072.114  
G23  19434652.871   102129695.379  
G22  20294711.213                  
G17  20891857.952   109787394.600  
G 1  20736026.199   108968488.433  
G 9  20936485.785   110021927.756  
R20  18649203.700    99725584.531  
R 5  18899518.211   101028718.437  
R 3  21982593.227                  
G 6  21972156.068                  
G31  22336724.577   117380303.003  
G19  20839076.261   109510084.0973 
> 2019  9 17 14  8 37.9950000  0 11                     
G 3  19101947.735   100381248.845  
G23  19434527.605   102129036.419  
G17  20892075.958   109788538.548  
G 1  20736654.067   108971789.161  
G 9  20935973.987   110019238.047  
R20  18649029.320    99724652.666  
R 5  18899268.071   101027379.846  
R 3  21983309.436                  
G 6  21971610.408                  
G31  22337069.167   117382109.465  
G19  20839130.339   109510367.9512 
> 2019  9 17 14  8 38.9950000  0 11                     
G 3  19102171.508   100382425.933  
G23  19434402.513   102128377.983  
G17  20892293.989   109789683.133  
G 1  20737282.170   108975090.329  
G 9  20935462.329   110016548.708  
R20  18648855.071    99723721.696  
R 5  18899017.626   101026041.760  
R 3  21984023.778                  
G 6  21971066.468                  
G31  22337414.009   117383916.640  
G19  20839183.938   109510652.6092 
> 2019  9 17 14  8 39.9950000  0 11                     
G 3  19102395.665   100383603.190  
G23  19434277.430   102127719.833  
G17  20892512.091   109790828.142  
G 1  20737910.404   108978391.641  
G 9  20934950.480   110013859.495  
R20  18648681.206    99722791.392  
R 5  18898767.311   101024703.934  
R 3  21984741.898                  
G 6  21970526.706                  
G31  22337757.089   117385724.220  
G19  20839236.786   109510937.8372 
> 2019  9 17 14  8 40.9950000  0 11                     
G 3  19102619.612   100384780.721  
G23  19434152.312   102127062.175  
G17  20892730.489   109791973.738  
G 1  20738538.481   108981693.258  
G 9  20934438.464   110011170.608  
R20  18648507.350    99721861.941  
R 5  18898516.830   101023366.558  
R 3  21985458.335                  
G 6  21969984.781                  
G31  22338099.890   117387532.350  
G19  20839291.981   109511223.7352 
> 2019  9 17 14  8 41.9950000  0 11                     
G 3  19102843.830   100385958.580  
G23  19434027.194   102126404.959  
G17  20892948.687   109793119.895  
G 1  20739166.549   108984995.207  
G 9  20933926.893   110008482.011  
R20  18648334.112    99720933.293  
R 5  18898266.498   101022029.568  
R 3  21986175.155                  
G 6  21969445.491                  
G31  22338443.895   117389341.100  
G19  20839343.851   109511510.3072 
> 2019  9 17 14  8 42.9950000  0 11                     
G 3  19103068.179   100387136.676  
G23  19433901.657   102125748.124  
G17  20893167.129   109794266.572  
G 1  20739794.600   108988297.415  
G 9  20933415.218   110005793.676  
R20  18648160.614    99720005.400  
R 5  18898016.323   101020692.906  
R 3  21986891.154                  
G 6  21968900.643                  
G31  22338785.282   117391150.364  
G19  20839398.532   109511797.5022 
> 2019  9 17 14  8 43.9950000  0 11                     
G 3  19103292.580   100388314.890  
G23  19433776.565   102125091.569  
G17  20893385.152   109795413.621  
G 1  20740422.432   108991599.750  
G 9  20932903.892   110003105.415  
R20  18647987.272    99719078.176  
R 5  18897766.375   101019356.448  
R 3  21987606.901                  
G 6  21968358.325                  
G31  22339128.877   117392960.021  
G19  20839454.050   109512085.2632 
> 2019  9 17 14  8 44.9950000  0 11                     
G 3  19103517.260   100389493.581  
G23  19433651.639   102124435.652  
G17  20893603.646   109796561.420  
G 1  20741051.172   108994902.572  
G 9  20932392.173   110000417.662  
R20  18647814.079    99718151.951  
R 5  18897516.549   101018020.599  
R 3  21988324.419                  
G 6  21967816.783                  
G31  22339473.248   117394770.439  
G19  20839510.911   109512373.8732 
> 2019  9 17 14  8 45.9950000  0 11                     
G 3  19103741.670   100390672.680  
G23  19433526.669   102123780.298  
G17  20893822.288   109797709.982  
G 1  20741679.337   108998205.871  
G 9  20931880.681   109997730.332  
R20  18647641.060    99717226.708  
R 5  18897266.592   101016685.287  
R 3  21989040.707                  
G 6  21967274.021                  
G31  22339817.995   117396581.567  
G19  20839566.028   109512663.2672 
> 2019  9 17 14  8 46.9950000  0 11                     
G 3  19103966.106   100391852.064  
G23  19433402.014   102123125.368  
G17  20894040.948   109798859.069  
G 1  20742307.719   109001509.382  
G 9  20931369.363   109995043.250  
R20  18647468.180    99716302.263  
R 5  18897017.054   101015350.344  
R 3  21989755.817                  
G 6  21966732.470                  
G31  22340160.822   117398393.199  
G19  20839622.366   109512953.3392 
> 2019  9 17 14  8 47.9950000  0 11                     
G 3  19104190.664   100393031.644  
G23  19433277.314   102122470.816  
G17  20894259.730   109800008.604  
G 1  20742936.407   109004813.193  
G 9  20930857.871   109992356.400  
R20  18647295.633    99715378.591  
R 5  18896767.307   101014015.737  
R 3  21990471.869                  
G 6  21966189.202                  
G31  22340506.380   117400205.355  
G19  20839678.250   109513244.0102 
> 2019  9 17 14  8 48.9950000  0 11                     
G 3  19104415.109   100394211.428  
G23  19433152.737   102121816.594  
G17  20894478.399   109801158.592  
G 1  20743564.998   109008117.191  
G 9  20930346.362   109989669.731  
R20  18647123.085    99714455.616  
R 5  18896517.812   101012681.409  
R 3  21991185.295                  
G 6  21965647.084                  
G31  22340852.740   117402017.953  
G19  20839736.080   109513534.7701 
> 2019  9 17 14  8 51.9950000  0 11                     
G 3  19105089.036   100397753.559  
G23  19432779.992   102119857.703  
G17  20895135.426   109804613.174  
G 1  20745450.713   109018032.064  
G 9  20928813.351   109981612.550  
R20  18646606.262    99711692.824  
R 5  18895769.704   101008681.985  
R 3  21993328.470                  
G 6  21964019.764                  
G31  22341887.163   117407460.387  
G19  20839906.141   109514413.762  
> 2019  9 17 14  8 53.9950000  0 11                     
G 3  19105538.641   100400116.518  
G23  19432532.277   102118554.097  
G17  20895573.723   109806919.137  
G 1  20746708.612   109024643.643  
G 9  20927791.161   109976242.655  
R20  18646262.501    99709855.160  
R 5  18895271.046   101006017.846  
R 3  21994756.081                  
G 6  21962936.132                  
G31  22342580.739   117411091.579  
G19  20840020.318   109515003.235  
> 2019  9 17 14  8 54.9950000  0 11                     
G 3  19105763.383   100401298.497  
G23  19432408.634   102117903.014  
G17  20895793.002   109808073.085  
G 1  20747337.727   109027949.913  
G 9  20927280.393   109973558.204  
R20  18646090.931    99708937.644  
R 5  18895021.866   101004686.450  
R 3  21995471.732                  
G 6  21962393.989                  
G31  22342925.102   117412908.074  
G19  20840075.766   109515299.106  
> 2019  9 17 14  8 55.9950000  0 11                     
G 3  19105988.752   100402480.865  
G23  19432284.772   102117252.437  
G17  20896012.544   109809227.575  
G 1  20747965.141   109031256.633  
G 9  20926769.695   109970874.100  
R20  18645919.456    99708020.999  
R 5  18894772.694   101003355.444  
R 3  21996186.554                  
G 6  21961852.910                  
G31  22343271.166   117414725.269  
G19  20840134.887   109515595.701  
> 2019  9 17 14  8 56.9950000  0 11                     
G 3  19106214.872   100403663.434  
G23  19432161.321   102116602.239  
G17  20896232.163   109810382.623  
G 1  20748594.692   109034563.553  
G 9  20926259.119   109968190.212  
R20  18645748.392    99707105.124  
R 5  18894523.715   101002024.800  
R 3  21996902.475                  
G 6  21961310.522                  
G31  22343618.164   117416542.904  
G19  20840189.786   109515892.830  
> 2019  9 17 14  8 57.9950000  0 11                     
G 3  19106440.024   100404846.167  
G23  19432037.948   102115952.389  
G17  20896451.661   109811538.054  
G 1  20749224.636   109037870.604  
G 9  20925748.203   109965506.507  
R20  18645577.170    99706189.947  
R 5  18894274.587   101000694.443  
R 3  21997619.583                  
G 6  21960766.808                  
G31  22343966.034   117418361.036  
G19  20840249.884   109516190.646  
> 2019  9 17 14  8 58.9950000  0 12                     
G 3  19106664.852   100406029.252  
G23  19431914.522   102115303.063  
G17  20896671.202   109812694.204  
G 1  20749854.022   109041178.137  
G 9  20925237.575   109962823.187  
R20  18645405.739    99705275.707  
R 5  18894025.712   100999364.638  
R 3  21998335.156                  
G 6  21960224.499                  
G31  22344312.106                  
G19  20840311.693   109516489.185  
R13  21524562.930                  
> 2019  9 17 14  8 59.9950000  0 12                     
G 3  19106890.667   100407212.697  
G23  19431790.722   102114654.203  
G17  20896890.935   109813850.964  
G 1  20750483.696   109044486.009  
G 9  20924727.060   109960140.185  
R20  18645234.963    99704362.301  
R 5  18893776.566   100998035.181  
R 3  21999048.398                  
G 6  21959683.996                  
G31  22344658.240                  
G19  20840365.335   109516788.498  
R13  21524485.599                  
> 2019  9 17 14  9  0.9950000  0 12                     
G 3  19107115.879   100408396.652  
G23  19431667.732   102114006.006  
G17  20897110.319   109815008.480  
G 1  20751113.081   109047794.326  
G 9  20924216.406   109957457.675  
R20  18645064.727    99703449.911  
R 5  18893527.866   100996706.361  
R 3  21999762.950                  
G 6  21959143.990                  
G31  22345004.487                  
G19  20840420.940   109517088.658  
R13  21524418.599                  
> 2019  9 17 14  9  1.9950000  0 12                     
G 3  19107341.135   100409581.055  
G23  19431544.560   102113358.458  
G17  20897330.087   109816166.757  
G 1  20751745.233   109051103.187  
G 9  20923705.934   109954775.679  
R20  18644894.160    99702538.582  
R 5  18893279.287   100995378.133  
R 3  22000477.571                  
G 6  21958602.222                  
G31  22345351.127                  
G19  20840477.749   109517389.624  
R13  21524341.818                  
> 2019  9 17 14  9  3.9950000  0 12                     
G 3  19107792.738   100411950.723  
G23  19431298.817   102112064.685  
G17  20897770.557   109818485.001  
G 1  20752999.310   109057721.848  
G 9  20922685.699   109949412.525  
R20  18644553.837    99700718.339  
R 5  18892782.523   100992722.899  
R 3  22001909.370                  
G 6  21957518.747                  
G31  22346047.356                  
G19  20840595.931   109517993.810  
R13  21524209.790                  
> 2019  9 17 14  9  4.9950000  0 13                     
G 3  19108018.212   100413136.297  
G23  19431176.151   102111418.725  
G22  20305866.439                  
G17  20897991.154   109819645.248  
G 1  20753628.687   109061031.816  
G 9  20922175.315   109946731.656  
R20  18644383.942    99699809.732  
R 5  18892534.416   100991396.164  
R 3  22002625.562                  
G 6  21956977.589                  
G31  22346392.583                  
G19  20840653.298   109518297.153  
R13  21524143.767                  
> 2019  9 17 14  9  6.9950000  0 13                     
G 3  19108468.952   100415508.005  
G23  19430930.330   102110127.877  
G22  20306659.072                  
G17  20898433.037   109821967.153  
G 1  20754888.131   109067652.561  
G 9  20921155.062   109941370.521  
R20  18644044.343    99697994.749  
R 5  18892038.053   100988743.593  
R 3  22004054.124                  
G 6  21955893.556                  
G31  22347082.041                  
G19  20840764.605   109518905.678  
R13  21524013.422                  
> 2019  9 17 14  9  7.9950000  0 13                     
G 3  19108694.941   100416694.436  
G23  19430807.725   102109483.252  
G22  20307057.827                  
G17  20898653.826   109823129.083  
G 1  20755516.626   109070963.570  
G 9  20920644.878   109938690.518  
R20  18643874.762    99697088.642  
R 5  18891789.693   100987418.042  
R 3  22004767.698                  
G 6  21955351.055                  
G31  22347429.221                  
G19  20840820.838   109519211.087  
R13  21523948.254                  
> 2019  9 17 14  9  8.9950000  0 13                     
G 3  19108920.485   100417881.027  
G23  19430685.032   102108838.934  
G22  20307457.384                  
G17  20898874.929   109824291.485  
G 1  20756145.270   109074274.669  
G 9  20920134.835   109936010.670  
R20  18643705.512    99696183.228  
R 5  18891541.944   100986092.747  
R 3  22005484.527                  
G 6  21954807.035                  
G31  22347776.873                  
G19  20840882.210   109519517.034  
R13  21523882.441                  
> 2019  9 17 14  9  9.9950000  0 13                     
G 3  19109146.456   100419067.939  
G23  19430562.453   102108195.101  
G22  20307855.782                  
G17  20899096.102   109825454.486  
G 1  20756780.328   109077586.175  
G 9  20919624.826   109933331.177  
R20  18643536.210    99695278.680  
R 5  18891294.177   100984767.920  
R 3  22006200.222                  
G 6  21954264.168                  
G31  22348127.885                  
G19  20840936.332   109519823.663  
R13  21523816.453                  
> 2019  9 17 14  9 10.9950000  0 13                     
G 3  19109372.445   100420255.440  
G23  19430440.049   102107552.014  
G22  20308254.685                  
G17  20899317.641   109826618.322  
G 1  20757406.668   109080898.225  
G 9  20919114.965   109930652.256  
R20  18643367.021    99694375.237  
R 5  18891046.602   100983443.811  
R 3  22006914.895                  
G 6  21953724.223                  
G31  22348474.926                  
G19  20840993.944   109520131.365  
R13  21523751.050                  
> 2019  9 17 14  9 11.9950000  0 13                     
G 3  19109598.382   100421443.357  
G23  19430317.426   102106909.486  
G22  20308654.731                  
G17  20899538.980   109827782.783  
G 1  20758033.899   109084210.721  
G 9  20918605.829   109927973.750  
R20  18643198.121    99693472.758  
R 5  18890799.149   100982120.199  
R 3  22007629.744                  
G 6  21953182.725                  
G31  22348822.726                  
G19  20841049.828   109520439.845  
R13  21523688.586                  
> 2019  9 17 14  9 12.9950000  0 13                     
G 3  19109824.476   100422631.708  
G23  19430195.239   102106267.566  
G22  20309053.957                  
G17  20899760.798   109828948.096  
G 1  20758664.462   109087523.765  
G 9  20918096.117   109925295.701  
R20  18643029.526    99692571.274  
R 5  18890551.705   100980797.158  
R 3  22008344.504                  
G 6  21952641.629                  
G31  22349171.477                  
G19  20841106.507   109520749.164  
R13  21523625.303                  
> 2019  9 17 14  9 13.9950000  0 13                     
G 3  19110050.456   100423820.480  
G23  19430073.201   102105626.224  
G22  20309451.857                  
G17  20899982.145   109830114.083  
G 1  20759295.611   109090837.123  
G 9  20917586.597   109922618.068  
R20  18642860.904    99691670.771  
R 5  18890303.964   100979474.643  
R 3  22009059.553                  
G 6  21952100.794                  
G31  22349517.061                  
G19  20841166.928   109521059.307  
R13  21523562.343                  
> 2019  9 17 14  9 14.9950000  0 13                     
G 3  19110276.637   100425009.585  
G23  19429950.989   102104985.367  
G22  20309849.216                  
G17  20900203.815   109831280.641  
G 1  20759927.370   109094150.921  
G 9  20917077.050   109919940.764  
R20  18642692.579    99690771.144  
R 5  18890056.790   100978152.540  
R 3  22009775.483                  
G 6  21951559.558                  
G31  22349865.211                  
G19  20841224.418   109521370.137  
R13  21523500.639                  
> 2019  9 17 14  9 16.9950000  0 13                     
G 3  19110728.894   100427388.838  
G23  19429706.965   102103705.154  
G22  20310646.996                  
G17  20900648.115   109833615.604  
G 1  20761179.458   109100779.509  
G 9  20916058.141   109914587.210  
R20  18642356.785    99688974.543  
R 5  18889561.972   100975509.780  
R 3  22011203.897                  
G 6  21950475.176                  
G31  22350562.696                  
G19  20841347.049   109521994.097  
R13  21523373.601                  
> 2019  9 17 14  9 17.9950000  0 13                     
G 3  19110955.494   100428578.999  
G23  19429585.049   102103065.798  
G22  20311047.217                  
G17  20900866.627   109834784.040  
G 1  20761814.375   109104094.326  
G 9  20915548.917   109911910.960  
R20  18642188.887    99688077.538  
R 5  18889314.729   100974189.092  
R 3  22011918.327                  
G 6  21949931.846                  
G31  22350911.500                  
G19  20841404.923   109522307.196  
R13  21523310.048                  
> 2019  9 17 14  9 18.9950000  0 13                     
G 3  19111182.138   100429769.575  
G23  19429463.273   102102427.007  
G22  20311448.764                  
G17  20901086.491   109835953.139  
G 1  20762447.539   109107409.705  
G 9  20915039.860   109909235.136  
R20  18642021.330    99687181.484  
R 5  18889067.468   100972868.911  
R 3  22012631.473                  
G 6  21949389.903                  
G31  22351260.399                  
G19  20841462.168   109522621.059  
R13  21523247.724                  
> 2019  9 17 14  9 20.9950000  0 13                     
G 3  19111635.224   100432151.089  
G23  19429219.921   102101150.315  
G22  20312248.944                  
G17  20901532.091   109838292.648  
G 1  20763709.547   109114040.696  
G 9  20914021.430   109903883.898  
R20  18641686.408    99685391.440  
R 5  18888573.574   100970229.306  
R 3  22014062.749                  
G 6  21948306.637                  
G31  22351958.495                  
G19  20841581.886   109523250.455  
R13  21523120.643                  
> 2019  9 17 14  9 22.9950000  0 13                     
G 3  19112089.052   100434533.949  
G23  19428976.656   102099875.534  
G22  20313048.530                  
G17  20901981.382   109840634.537  
G 1  20764968.170   109120673.067  
G 9  20913003.917   109898533.961  
R20  18641352.385    99683604.804  
R 5  18888080.274   100967591.455  
R 3  22015494.016                  
G 6  21947228.798                  
G31  22352656.740                  
G19  20841699.125                  
R13  21522995.368                  
> 2019  9 17 14  9 23.9950000  0 13                     
G 3  19112315.896   100435725.685  
G23  19428855.464   102099238.688  
G22  20313448.463                  
G17  20902205.626   109841806.241  
G 1  20765596.919   109123989.640  
G 9  20912494.946   109895859.318  
R20  18641185.631    99682712.622  
R 5  18887833.694   100966273.036  
R 3  22016207.119                  
G 6  21946688.766                  
G31  22353007.672                  
G19  20841755.768                  
R13  21522932.626                  
> 2019  9 17 14  9 24.9950000  0 13                     
G 3  19112542.853   100436918.048  
G23  19428734.045   102098602.616  
G22  20313848.352                  
G17  20902425.778   109842978.838  
G 1  20766228.163   109127306.784  
G 9  20911986.298   109893185.290  
R20  18641019.034    99681821.602  
R 5  18887587.742   100964955.305  
R 3  22016923.084                  
G 6  21946147.155                  
G31  22353359.111                  
G19  20841814.759                  
R13  21522870.660                  
> 2019  9 17 14  9 25.9950000  0 13                     
G 3  19112769.724   100438110.855  
G23  19428613.028   102097967.164  
G22  20314250.091                  
G17  20902651.304   109844152.179  
G 1  20766860.175   109130624.420  
G 9  20911477.703   109890511.734  
R20  18640852.314    99680931.608  
R 5  18887341.441   100963638.171  
R 3  22017638.761                  
G 6  21945607.027                  
G31  22353706.850                  
G19  20841873.357                  
R13  21522807.979                  
> 2019  9 17 14  9 26.9950000  0 12                     
G 3  19112997.021   100439303.905  
G23  19428492.002   102097332.077  
G22  20314650.949                  
G17  20902876.456   109845325.945  
G 1  20767490.023   109133942.226  
G 9  20910968.733   109887838.380  
R20  18640686.049    99680042.364  
R 5  18887095.358   100962321.371  
R 3  22018354.351                  
G 6  21945064.832                  
G31  22354056.195                  
R13  21522744.975                  
> 2019  9 17 14  9 27.9950000  0 12                     
G 3  19113224.319   100440497.204  
G23  19428370.819   102096697.421  
G22  20315054.782                  
G17  20903097.655   109846500.289  
G 1  20768124.479   109137260.404  
G 9  20910460.172   109885165.311  
R20  18640519.556    99679153.932  
R 5  18886848.987   100961004.947  
R 3  22019069.653                  
G 6  21944524.695                  
G31  22354405.941   117473194.5443 
R13  21522682.800                  
> 2019  9 17 14  9 28.9950000  0 12                     
G 3  19113451.591   100441690.724  
G23  19428249.776   102096063.156  
G22  20315458.196                  
G17  20903323.243   109847675.193  
G 1  20768757.398   109140578.861  
G 9  20909951.682   109882492.489  
R20  18640353.613    99678266.249  
R 5  18886603.122   100959688.864  
R 3  22019784.614                  
G 6  21943984.244                  
G31  22354756.899   117475032.1672 
R13  21522618.242                  
> 2019  9 17 14  9 29.9950000  0 12                     
G 3  19113679.028   100442884.482  
G23  19428128.898   102095429.277  
G22  20315859.804                  
G17  20903549.136   109848850.520  
G 1  20769393.624   109143897.489  
G 9  20909443.165   109879819.897  
R20  18640187.496    99677379.317  
R 5  18886357.126   100958373.105  
R 3  22020500.623                  
G 6  21943442.459                  
G31  22355107.186   117476870.2732 
R13  21522558.275                  
> 2019  9 17 14  9 31.9950000  0 12                     
G 3  19114134.060   100445273.044  
G23  19427887.579   102094162.990  
G22  20316659.478                  
G17  20903994.814   109851203.181  
G 1  20770652.963   109150535.865  
G 9  20908426.227   109874475.727  
R20  18639855.811    99675608.109  
R 5  18885865.580   100955742.961  
R 3  22021931.288                  
G 6  21942356.488                  
G31  22355809.235   117480548.2832 
R13  21522433.183                  
> 2019  9 17 14  9 32.9950000  0 12                     
G 3  19114361.122   100446467.840  
G23  19427766.998   102093530.606  
G22  20317061.592                  
G17  20904218.980   109852380.412  
G 1  20771289.407   109153855.628  
G 9  20907917.946   109871804.173  
R20  18639690.295    99674723.850  
R 5  18885619.907   100954428.604  
R 3  22022647.261                  
G 6  21941817.337                  
G31  22356161.118   117482388.2672 
R13  21522372.639                  
> 2019  9 17 14  9 33.9950000  0 12                     
G 3  19114588.944   100447662.844  
G23  19427646.792   102092898.612  
G22  20317462.545                  
G17  20904443.721   109853558.135  
G 1  20771919.805   109157175.533  
G 9  20907409.490   109869132.827  
R20  18639525.400    99673840.352  
R 5  18885374.199   100953114.576  
R 3  22023361.909                  
G 6  21941274.758                  
G31  22356512.217   117484228.7182 
R13  21522310.700                  
> 2019  9 17 14  9 34.9950000  0 13                     
G 3  19114816.582   100448858.103  
G23  19427526.429   102092266.986  
G22  20317862.016                  
G17  20904666.613   109854736.398  
G 1  20772555.098   109160495.825  
G 9  20906901.288   109866461.768  
R20  18639360.321    99672957.653  
R 5  18885128.893   100951800.906  
R 3  22024076.111                  
G 6  21940735.511                  
G31  22356862.129   117486069.6832 
G18  22856071.545                  
R13  21522248.394                  
> 2019  9 17 14  9 35.9950000  0 13                     
G 3  19115044.071   100450053.895  
G23  19427406.398   102091636.060  
G22  20318261.469                  
G17  20904893.038   109855915.444  
G 1  20773184.536   109163816.540  
G 9  20906393.207   109863791.191  
R20  18639195.390    99672076.008  
R 5  18884883.569   100950487.860  
R 3  22024791.902                  
G 6  21940194.092                  
G31  22357212.337   117487911.4392 
G18  22856871.733                  
R13  21522186.585                  
