     3.02           OBSERVATION DATA    M: Mixed            RINEX VERSION / TYPE
CONVBIN 2.4.2                           20190917 142328 UTC PGM / RUN BY / DATE 
log: ./output_ubx/raw_obs_test_lollo_17-9-2019_16:21.ubx    COMMENT             
format: u-blox                                              COMMENT             
                                                            MARKER NAME         
                                                            MARKER NUMBER       
                                                            MARKER TYPE         
                                                            OBSERVER / AGENCY   
                                                            REC # / TYPE / VERS 
                                                            ANT # / TYPE        
  4508574.5681   708395.4075  4440683.0975                  APPROX POSITION XYZ 
        0.0000        0.0000        0.0000                  ANTENNA: DELTA H/E/N
G    2 C1C L1C                                              SYS / # / OBS TYPES 
R    2 C1C L1C                                              SYS / # / OBS TYPES 
E    2 C1C L1C                                              SYS / # / OBS TYPES 
J    2 C1C L1C                                              SYS / # / OBS TYPES 
S    2 C1C L1C                                              SYS / # / OBS TYPES 
C    2 C1I L1I                                              SYS / # / OBS TYPES 
  2019     9    17    14    21   44.9960000     GPS         TIME OF FIRST OBS   
  2019     9    17    14    23   45.9960000     GPS         TIME OF LAST OBS    
G                                                           SYS / PHASE SHIFT   
R                                                           SYS / PHASE SHIFT   
E                                                           SYS / PHASE SHIFT   
J                                                           SYS / PHASE SHIFT   
S                                                           SYS / PHASE SHIFT   
C                                                           SYS / PHASE SHIFT   
  0                                                         GLONASS SLOT / FRQ #
 C1C    0.000 C1P    0.000 C2C    0.000 C2P    0.000        GLONASS COD/PHS/BIS 
                                                            END OF HEADER       
> 2019  9 17 14 21 44.9960000  0 14                     
G 3  19297416.419   101408594.513  
G23  19364404.202   101760467.339  
G22  20622234.559                  
R21  21919783.637                  
G17  21098484.960                  
G 9  20553464.272   108009145.106  
R20  18563180.427    99265578.887  
R 5  18727677.550   100110130.962  
R 3  22544293.653                  
G 6  21557157.947   113283634.277  
G31  22642752.178                  
G 1  21250550.075   111672331.041  
G19  20924141.125   109957140.981  
R13  21519482.997                  
> 2019  9 17 14 21 49.9960000  0 14                     
G 3  19298781.401   101415763.118  
G23  19364141.567   101759086.536  
G22  20624405.724                  
R21  21916384.466                  
G17  21100023.667   110881343.2952 
G 9  20551171.052   107997088.901  
R20  18562969.576    99264454.144  
R 5  18726750.804   100105173.664  
R 3  22547843.847                  
G 6  21554615.896   113270269.046  
G31  22644927.191   118999849.7822 
G 1  21253936.350   111690117.749  
G19  20924951.662   109961398.032  
R13  21519750.055                  
> 2019  9 17 14 21 51.9960000  0 14                     
G 3  19299328.143   101418632.546  
G23  19364036.735   101758537.379  
G22  20625275.591                  
R21  21915023.846                  
G17  21100641.370   110884565.1322 
G 9  20550253.990   107992268.800  
R20  18562886.425    99264010.452  
R 5  18726380.772   100103193.626  
R 3  22549264.312                  
G 6  21553599.455   113264924.591  
G31  22645792.931   119004396.1862 
G 1  21255289.903   111697234.318  
G19  20925276.951   109963105.636  
R13  21519859.581                  
> 2019  9 17 14 21 52.9960000  0 14                     
G 3  19299601.169   101420067.590  
G23  19363984.393   101758263.337  
G22  20625708.531                  
R21  21914345.417                  
G17  21100948.887   110886176.7092 
G 9  20549795.626   107989859.153  
R20  18562845.190    99263789.806  
R 5  18726195.686   100102204.052  
R 3  22549974.335                  
G 6  21553091.270   113262252.536  
G31  22646231.315   119006670.1052 
G 1  21255963.490   111700792.901  
G19  20925439.675   109963960.303  
R13  21519915.160                  
> 2019  9 17 14 21 55.9960000  0 14                     
G 3  19300421.827   101424374.692  
G23  19363828.109   101757444.231  
G22  20627006.540                  
R21  21912307.092                  
G17  21101868.504   110891014.4201 
G 9  20548420.470   107982632.538  
R20  18562722.350    99263133.502  
R 5  18725640.612   100099238.022  
R 3  22552103.157                  
G 6  21551566.435   113254238.134  
G31  22647534.698   119013494.6751 
G 1  21257997.749   111711524.5363 
G19  20925928.237   109966528.669  
R13  21520082.665                  
> 2019  9 17 14 21 56.9960000  0 14                     
G 3  19300695.559   101425811.046  
G23  19363776.238   101757172.182  
G22  20627439.785                  
R21  21911627.388                  
G17  21102177.007   110892628.315  
G 9  20547962.035   107980224.425  
R20  18562681.630    99262916.606  
R 5  18725455.535   100098250.248  
R 3  22552812.840                  
G 6  21551058.267   113251567.223  
G31  22647965.675   119015770.846  
G 1  21258678.473   111715084.3592 
G19  20926091.414   109967386.233  
R13  21520137.790                  
> 2019  9 17 14 21 57.9960000  0 14                     
G 3  19300969.388   101427247.726  
G23  19363724.620   101756900.624  
G22  20627870.273                  
R21  21910950.267                  
G17  21102486.094   110894242.824  
G 9  20547503.792   107977816.696  
R20  18562641.058    99262700.633  
R 5  18725270.990   100097262.952  
R 3  22553522.951                  
G 6  21550550.108   113248896.535  
G31  22648397.917   119018047.601  
G 1  21259358.779   111718644.4972 
G19  20926254.687   109968244.450  
R13  21520194.634                  
> 2019  9 17 14 21 58.9960000  0 14                     
G 3  19301243.418   101428684.864  
G23  19363673.029   101756629.660  
G22  20628305.499                  
R21  21910271.655                  
G17  21102796.149   110895857.925  
G 9  20547045.698   107975409.443  
R20  18562600.966    99262485.706  
R 5  18725086.332   100096276.187  
R 3  22554233.297                  
G 6  21550041.792   113246226.264  
G31  22648829.417   119020325.035  
G 1  21260033.675   111722205.0112 
G19  20926418.117   109969103.543  
R13  21520252.089                  
> 2019  9 17 14 21 59.9960000  0 14                     
G 3  19301517.247   101430122.140  
G23  19363621.315   101756359.024  
G22  20628738.840                  
R21  21909594.464                  
G17  21103103.142   110897473.499  
G 9  20546587.578   107973002.433  
R20  18562561.136    99262271.548  
R 5  18724901.813   100095289.681  
R 3  22554945.815                  
G 6  21549531.434   113243556.111  
G31  22649264.818   119022602.873  
G 1  21260712.540   111725765.7202 
G19  20926581.277   109969963.202  
R13  21520307.022                  
> 2019  9 17 14 22  0.9960000  0 14                     
G 3  19301791.285   101431559.648  
G23  19363570.142   101756088.773  
G22  20629176.553                  
R21  21908916.820                  
G17  21103408.504   110899089.562  
G 9  20546129.640   107970595.673  
R20  18562521.375    99262058.191  
R 5  18724717.208   100094303.479  
R 3  22555655.437                  
G 6  21549025.256   113240886.098  
G31  22649697.757   119024881.184  
G 1  21261388.728   111729326.6062 
G19  20926745.317   109970823.483  
R13  21520360.769                  
> 2019  9 17 14 22  1.9960000  0 14                     
G 3  19302065.192   101432997.561  
G23  19363518.682   101755819.065  
G22  20629611.028                  
R21  21908237.491                  
G17  21103714.127   110900706.206  
G 9  20545671.345   107968189.378  
R20  18562481.310    99261845.850  
R 5  18724532.846   100093317.783  
R 3  22556366.691                  
G 6  21548515.195   113238216.388  
G31  22650132.818   119027160.087  
G 1  21262066.555   111732887.8442 
G19  20926909.035   109971684.477  
R13  21520414.315                  
> 2019  9 17 14 22  2.9960000  0 14                     
G 3  19302339.422   101434435.767  
G23  19363467.430   101755549.842  
G22  20630045.477                  
R21  21907558.521                  
G17  21104021.032   110902323.448  
G 9  20545213.425   107965783.452  
R20  18562441.794    99261634.404  
R 5  18724348.650   100092332.584  
R 3  22557077.551                  
G 6  21548009.488   113235546.976  
G31  22650567.799   119029439.577  
G 1  21262744.601   111736449.4162 
G19  20927072.849   109972546.207  
R13  21520471.630                  
> 2019  9 17 14 22  3.9960000  0 14                     
G 3  19302613.783   101435874.424  
G23  19363416.188   101755281.247  
G22  20630480.276                  
R21  21906879.672                  
G17  21104329.282   110903941.339  
G 9  20544755.340   107963378.032  
R20  18562402.574    99261424.029  
R 5  18724164.516   100091347.942  
R 3  22557786.589                  
G 6  21547500.142   113232877.929  
G31  22651001.489   119031719.783  
G 1  21263423.519   111740011.3852 
G19  20927237.169   109973408.796  
R13  21520529.574                  
> 2019  9 17 14 22  5.9960000  0 14                     
G 3  19303161.938   101438752.828  
G23  19363313.371   101754745.590  
G22  20631349.079                  
R21  21905522.909                  
G17  21104950.021   110907179.003  
G 9  20543839.831   107958568.429  
R20  18562324.633    99261006.075  
R 5  18723796.456   100089380.088  
R 3  22559205.230                  
G 6  21546483.379   113227540.786  
G31  22651869.987   119036281.926  
G 1  21264778.712   111747136.3182 
G19  20927565.827   109975136.213  
R13  21520639.737                  
> 2019  9 17 14 22  7.9960000  0 14                     
G 3  19303710.835   101441632.441  
G23  19363210.711   101754211.769  
G22  20632219.399                  
R21  21904165.579                  
G17  21105561.860   110910418.873  
G 9  20542924.820   107953760.252  
R20  18562247.285    99260591.778  
R 5  18723428.806   100087413.825  
R 3  22560624.814                  
G 6  21545469.102   113222204.555  
G31  22652738.946   119040846.263  
G 1  21266134.829   111754262.473  
G19  20927894.885   109976866.330  
R13  21520755.851                  
> 2019  9 17 14 22 19.9960000  0 14                     
G 3  19307014.545   101458942.356  
G23  19362604.665   101751054.845  
G22  20637435.174                  
R21  21896030.811                  
G17  21109261.664   110929910.669  
G 9  20537441.857   107924948.031  
R20  18561797.532    99258188.634  
R 5  18721228.028   100075658.673  
R 3  22569143.016                  
G 6  21539382.248   113190214.876  
G31  22657960.409   119068284.772  
G 1  21274273.951   111797049.543  
G19  20929882.954   109987311.877  
R13  21521459.539                  
> 2019  9 17 14 22 21.9960000  0 14                     
G 3  19307564.332   101461831.636  
G23  19362505.443   101750535.250  
G22  20638305.128                  
R21  21894672.451                  
G17  21109877.901   110933167.041  
G 9  20536528.975   107920151.072  
R20  18561724.790    99257800.805  
R 5  18720861.992   100073705.389  
R 3  22570561.169                  
G 6  21538370.267   113184886.773  
G31  22658832.004   119072865.587  
G 1  21275628.245   111804184.696  
G19  20930216.332   109989062.534  
R13  21521579.204                  
> 2019  9 17 14 22 22.9960000  0 14                     
G 3  19307839.321   101463276.962  
G23  19362456.147   101750276.374  
G22  20638738.836                  
R21  21893994.728                  
G17  21110187.460   110934796.227  
G 9  20536072.705   107917753.365  
R20  18561688.625    99257608.471  
R 5  18720679.358   100072729.607  
R 3  22571270.895                  
G 6  21537860.581   113182223.278  
G31  22659267.998   119075156.996  
G 1  21276309.275   111807752.933  
G19  20930383.330   109989939.168  
R13  21521640.158                  
> 2019  9 17 14 22 24.9960000  0 14                     
G 3  19308385.722   101466168.707  
G23  19362358.207   101749760.198  
G22  20639608.380                  
R21  21892637.381                  
G17  21110809.865   110938056.557  
G 9  20535160.119   107912959.187  
R20  18561617.306    99257226.686  
R 5  18720314.334   100070779.504  
R 3  22572692.364                  
G 6  21536847.665   113176897.300  
G31  22660140.561   119079741.654  
G 1  21277666.980   111814890.393  
G19  20930717.013   109991694.571  
R13  21521758.976                  
> 2019  9 17 14 22 25.9960000  0 14                     
G 3  19308661.278   101467615.016  
G23  19362309.512   101749502.819  
G22  20640042.201                  
R21  21891959.544                  
G17  21111123.829   110939687.520  
G 9  20534703.944   107910562.654  
R20  18561581.437    99257037.161  
R 5  18720132.137   100069805.075  
R 3  22573403.155                  
G 6  21536341.766   113174234.643  
G31  22660577.192   119082034.797  
G 1  21278341.989   111818459.601  
G19  20930884.326   109992573.336  
R13  21521820.427                  
> 2019  9 17 14 22 26.9960000  0 14                     
G 3  19308936.913   101469061.698  
G23  19362260.669   101749245.940  
G22  20640479.286                  
R21  21891285.556                  
G17  21111436.345   110941319.013  
G 9  20534247.769   107908166.477  
R20  18561546.161    99256848.557  
R 5  18719949.930   100068831.060  
R 3  22574113.562                  
G 6  21535835.204   113171572.306  
G31  22661013.761   119084328.533  
G 1  21279023.717   111822029.106  
G19  20931051.473   109993452.785  
R13  21521880.290                  
> 2019  9 17 14 22 27.9960000  0 14                     
G 3  19309211.318   101470508.382  
G23  19362212.088   101748989.261  
G22  20640915.977                  
R21  21890609.430                  
G17  21111743.635   110942950.889  
G 9  20533791.429   107905770.437  
R20  18561510.737    99256660.640  
R 5  18719767.959   100067857.245  
R 3  22574822.643                  
G 6  21535328.833   113168909.941  
G31  22661450.313   119086622.567  
G 1  21279702.522   111825598.597  
G19  20931218.759   109994332.701  
R13  21521943.094                  
> 2019  9 17 14 22 28.9960000  0 14                     
G 3  19309484.178   101471955.314  
G23  19362163.323   101748732.926  
G22  20641352.049                  
R21  21889931.489                  
G17  21112053.900   110944583.104  
G 9  20533335.734   107903374.621  
R20  18561475.715    99256473.498  
R 5  18719585.954   100066883.698  
R 3  22575532.771                  
G 6  21534822.280   113166247.683  
G31  22661886.857   119088916.918  
G 1  21280382.661   111829168.323  
G19  20931386.264   109995213.184  
R13  21522004.902                  
> 2019  9 17 14 22 29.9960000  0 14                     
G 3  19309762.832   101473402.482  
G23  19362114.829   101748477.081  
G22  20641786.045                  
R21  21889255.485                  
G17  21112364.967   110946215.926  
G 9  20532879.733   107900979.173  
R20  18561440.823    99256287.263  
R 5  18719403.817   100065910.625  
R 3  22576241.494                  
G 6  21534315.420   113163585.708  
G31  22662324.098   119091211.979  
G 1  21281063.848   111832738.245  
G19  20931553.891   109996094.358  
R13  21522066.091                  
> 2019  9 17 14 22 30.9960000  0 14                     
G 3  19310037.219   101474849.870  
G23  19362066.387   101748221.580  
G22  20642221.123                  
R21  21888577.064                  
G17  21112674.770   110947849.181  
G 9  20532423.698   107898583.961  
R20  18561406.289    99256101.816  
R 5  18719221.724   100064937.824  
R 3  22576950.453                  
G 6  21533809.172   113160923.874  
G31  22662762.849   119093507.388  
G 1  21281740.288   111836308.370  
G19  20931721.500   109996976.100  
R13  21522126.077                  
> 2019  9 17 14 22 32.9960000  0 14                     
G 3  19310589.048   101477745.280  
G23  19361969.896   101747711.736  
G22  20643092.822                  
R21  21887222.979                  
G17  21113295.832   110951117.040  
G 9  20531511.881   107893794.367  
R20  18561337.195    99255733.337  
R 5  18718858.428   100062993.201  
R 3  22578368.248                  
G 6  21532796.021   113155600.682  
G31  22663634.522   119098099.598  
G 1  21283100.873   111843449.170  
G19  20932057.478   109998741.390  
R13  21522248.743                  
> 2019  9 17 14 22 35.9960000  0 15                     
G 3  19311413.344   101482091.267  
G23  19361824.998   101746951.008  
G22  20644398.875                  
R21  21885191.355                  
G17  21114229.584   110956023.502  
G 9  20530144.787   107886613.232  
R20  18561235.713    99255188.074  
R 5  18718313.876   100060080.001  
R 3  22580498.379                  
G 6  21531276.509   113147618.261  
G31  22664952.031   119104992.497  
G 1  21285143.351   111854163.079  
G19  20932562.496   110001395.065  
G11  22841175.070                  
R13  21522431.420                  
> 2019  9 17 14 22 38.9960000  0 15                     
G 3  19312243.424   101486439.841  
G23  19361680.764   101746194.345  
G22  20645705.477                  
R21  21883160.002                  
G17  21115164.864   110960934.815  
G 9  20528778.103   107879435.247  
R20  18561135.610    99254650.867  
R 5  18717770.389   100057170.464  
R 3  22582625.970                  
G 6  21529757.467   113139637.979  
G31  22666266.792   119111890.218  
G 1  21287177.916   111864879.440  
G19  20933068.203   110004054.859  
G11  22843668.680                  
R13  21522618.426                  
> 2019  9 17 14 22 40.9960000  0 15                     
G 3  19312792.356   101489340.535  
G23  19361583.906   101745692.380  
G22  20646577.037                  
R21  21881805.751                  
G17  21115788.604   110964211.855  
G 9  20527868.118   107874651.837  
R20  18561069.360    99254297.355  
R 5  18717408.245   100055233.029  
R 3  22584042.884                  
G 6  21528745.119   113134319.194  
G31  22667151.273                  
G 1  21288535.892   111872025.306  
G19  20933406.127   110005831.646  
G11  22845332.916                  
R13  21522746.851                  
> 2019  9 17 14 22 43.9960000  0 15                     
G 3  19313622.244   101493693.882  
G23  19361440.457   101744942.945  
G22  20647885.568                  
R21  21879779.511                  
G17  21116725.349   110969131.580  
G 9  20526503.476   107867479.471  
R20  18560971.595    99253773.890  
R 5  18716865.892   100052329.967  
R 3  22586171.148                  
G 6  21527227.255   113126342.878  
G31  22668472.028                  
G 1  21290581.816   111882746.053  
G19  20933913.640   110008502.005  
G11  22847830.749                  
R13  21522935.130                  
> 2019  9 17 14 22 46.9960000  0 14                     
G 3  19314447.020   101498050.519  
G23  19361297.260   101744198.237  
G22  20649190.949                  
R21  21877751.080                  
G17  21117662.941   110974056.718  
G 9  20525139.620   107860310.880  
R20  18560875.157    99253259.164  
R 5  18716323.871   100049431.303  
R 3  22588300.004                  
G 6  21525709.950   113118369.361  
G31  22669797.512                  
G 1  21292622.576   111893469.865  
G19  20934421.764   110011179.152  
R13  21523125.485                  
> 2019  9 17 14 22 52.9960000  0 14                     
G 3  19316109.476   101506772.907  
G23  19361013.895   101742722.364  
G22  20651807.958                  
R21  21873695.073                  
G17  21119540.052   110983922.811  
G 9  20522414.768   107845984.398  
R20  18560687.331    99252255.131  
R 5  18715242.655   100043646.180  
R 3  22592555.057                  
G 6  21522675.052   113102430.007  
G31  22672456.829                  
G 1  21296706.633   111914926.102  
G19  20935443.413   110016553.016  
R13  21523516.519                  
> 2019  9 17 14 22 54.9960000  0 14                     
G 3  19316662.360   101509683.030  
G23  19360920.266   101742234.411  
G22  20652679.562                  
R21  21872346.555                  
G17  21120166.602   110987216.148  
G 9  20521506.833   107841212.094  
R20  18560626.264    99251927.935  
R 5  18714882.483   100041721.459  
R 3  22593973.472                  
G 6  21521664.283   113097119.254  
G31  22673342.279                  
G 1  21298068.003   111922080.784  
G19  20935785.411   110018350.144  
R13  21523646.453                  
> 2019  9 17 14 22 57.9960000  0 13                     
G 3  19317493.950   101514050.900  
G23  19360780.559   101741506.291  
G22  20653988.982                  
G17  21121106.872   110992160.614  
G 9  20520145.716   107834056.602  
R20  18560535.506    99251444.322  
R 5  18714343.097   100038837.815  
R 3  22596103.960                  
G 6  21520149.194   113089155.135  
G31  22674661.917                  
G 1  21300110.551   111932815.045  
G19  20936299.408   110021051.235  
R13  21523846.851                  
> 2019  9 17 14 22 59.9960000  0 13                     
G 3  19318049.583   101516964.388  
G23  19360687.663   101741023.297  
G22  20654864.320                  
G17  21121734.190   110995459.694  
G 9  20519238.645   107829288.189  
R20  18560475.905    99251126.513  
R 5  18713983.648   100036917.588  
R 3  22597522.610                  
G 6  21519144.917   113083847.081  
G31  22675535.448                  
G 1  21301472.742   111939972.754  
G19  20936642.470   110022855.489  
R13  21523976.314                  
> 2019  9 17 14 23  0.9960000  0 13                     
G 3  19318330.514   101518421.608  
G23  19360641.272   101740782.520  
G22  20655302.748                  
G17  21122048.277   110997110.097  
G 9  20518785.201   107826904.557  
R20  18560446.344    99250969.001  
R 5  18713803.868   100035958.120  
R 3  22598232.058                  
G 6  21518638.799   113081193.505  
G31  22675969.383                  
G 1  21302153.806   111943552.066  
G19  20936814.416   110023758.703  
R13  21524041.369                  
> 2019  9 17 14 23  1.9960000  0 13                     
G 3  19318607.641   101519879.099  
G23  19360594.767   101740542.183  
G22  20655738.192                  
G17  21122362.668   110998761.057  
G 9  20518332.089   107824521.277  
R20  18560417.193    99250812.373  
R 5  18713624.706   100034999.047  
R 3  22598940.615                  
G 6  21518130.562   113078540.119  
G31  22676405.098                  
G 1  21302835.115   111947131.646  
G19  20936986.728   110024662.602  
R13  21524107.226                  
> 2019  9 17 14 23  2.9960000  0 13                     
G 3  19318884.907   101521336.691  
G23  19360548.620   101740302.096  
G22  20656171.184                  
G17  21122676.860   111000412.257  
G 9  20517878.811   107822138.100  
R20  18560388.069    99250656.367  
R 5  18713445.266   100034040.153  
R 3  22599652.025                  
G 6  21517623.406   113075886.747  
G31  22676837.479                  
G 1  21303516.223   111950711.214  
G19  20937158.901   110025566.907  
R13  21524173.092                  
> 2019  9 17 14 23  4.9960000  0 13                     
G 3  19319440.383   101524253.148  
G23  19360456.230   101739823.664  
G22  20657044.943                  
G17  21123305.809   111003716.730  
G 9  20516972.202   107817373.206  
R20  18560330.309    99250347.513  
R 5  18713087.135   100032124.012  
R 3  22601074.716                  
G 6  21516614.740   113070581.101  
G31  22677708.550                  
G 1  21304878.474   111957871.651  
G19  20937503.481   110027378.032  
R13  21524303.855                  
> 2019  9 17 14 23  5.9960000  0 13                     
G 3  19319718.016   101525711.943  
G23  19360410.492   101739585.272  
G22  20657480.553                  
G17  21123620.524   111005369.916  
G 9  20516519.203   107814991.451  
R20  18560301.463    99250194.625  
R 5  18712907.877   100031166.709  
R 3  22601785.271                  
G 6  21516110.263   113067928.846  
G31  22678141.289                  
G 1  21305560.150   111961452.394  
G19  20937675.916   110028284.715  
R13  21524371.413                  
> 2019  9 17 14 23  6.9960000  0 13                     
G 3  19319993.921   101527171.013  
G23  19360364.939   101739347.271  
G22  20657915.822                  
G17  21123935.413   111007023.563  
G 9  20516066.169   107812609.949  
R20  18560272.636    99250042.535  
R 5  18712728.777   100030209.716  
R 3  22602493.872                  
G 6  21515605.376   113065276.682  
G31  22678575.268                  
G 1  21306241.616   111965033.331  
G19  20937848.690   110029192.070  
R13  21524437.410                  
> 2019  9 17 14 23  8.9960000  0 13                     
G 3  19320551.613   101530090.209  
G23  19360274.267   101738872.972  
G22  20658789.127                  
G17  21124565.025   111010332.782  
G 9  20515160.573   107807848.352  
R20  18560215.888    99249741.400  
R 5  18712370.899   100028297.308  
R 3  22603910.332                  
G 6  21514596.552   113059973.512  
G31  22679448.869   119181350.1583 
G 1  21307604.451   111972196.386  
G19  20938193.952   110031009.040  
R13  21524572.414                  
> 2019  9 17 14 23  9.9960000  0 13                     
G 3  19320828.041   101531550.304  
G23  19360228.940   101738636.475  
G22  20659226.316                  
G17  21124880.098   111011988.221  
G 9  20514707.705   107805468.089  
R20  18560187.950    99249592.192  
R 5  18712191.843   100027341.737  
R 3  22604619.221                  
G 6  21514092.337   113057322.244  
G31  22679887.009   119183667.5582 
G 1  21308285.917   111975778.345  
G19  20938366.901   110031918.558  
R13  21524640.121                  
> 2019  9 17 14 23 10.9960000  0 13                     
G 3  19321105.500   101533010.760  
G23  19360183.247   101738400.542  
G22  20659664.605                  
G17  21125195.345   111013644.272  
G 9  20514254.758   107803088.234  
R20  18560160.256    99249443.939  
R 5  18712012.882   100026386.622  
R 3  22605326.766                  
G 6  21513588.078   113054671.341  
G31  22680326.022   119185985.6162 
G 1  21308967.436   111979360.590  
G19  20938540.155   110032828.851  
R13  21524707.199                  
> 2019  9 17 14 23 11.9960000  0 13                     
G 3  19321383.613   101534471.515  
G23  19360138.383   101738165.059  
G22  20660101.270                  
G17  21125510.644   111015300.830  
G 9  20513802.213   107800708.739  
R20  18560132.537    99249296.590  
R 5  18711834.462   100025431.943  
R 3  22606034.495                  
G 6  21513083.767   113052020.712  
G31  22680766.029   119188304.2172 
G 1  21309649.198   111982943.089  
G19  20938713.514   110033739.818  
R13  21524772.917                  
> 2019  9 17 14 23 12.9960000  0 13                     
G 3  19321664.134   101535932.491  
G23  19360093.291   101737930.029  
G22  20660536.208                  
G17  21125825.926   111016957.953  
G 9  20513349.624   107798329.608  
R20  18560105.096    99249150.115  
R 5  18711656.007   100024477.672  
R 3  22606743.009                  
G 6  21512579.438   113049370.248  
G31  22681212.083   119190623.3552 
G 1  21310331.065   111986525.968  
G19  20938887.083   110034651.447  
R13  21524841.828                  
> 2019  9 17 14 23 13.9960000  0 13                     
G 3  19321942.037   101537393.742  
G23  19360048.331   101737695.370  
G22  20660977.733                  
G17  21126141.539   111018615.490  
G 9  20512896.922   107795950.751  
R20  18560078.066    99249004.475  
R 5  18711477.361   100023523.759  
R 3  22607451.976                  
G 6  21512075.345   113046719.955  
G31  22681648.766   119192942.8652 
G 1  21311012.662   111990108.945  
G19  20939060.748   110035563.679  
R13  21524909.674                  
> 2019  9 17 14 23 14.9960000  0 13                     
G 3  19322216.608   101538855.430  
G23  19360002.960   101737461.285  
G22  20661416.179                  
G17  21126456.804   111020273.750  
G 9  20512444.839   107793572.376  
R20  18560050.800    99248859.867  
R 5  18711299.177   100022570.371  
R 3  22608161.389                  
G 6  21511571.103   113044070.092  
G31  22682090.640   119195263.1222 
G 1  21311694.966   111993692.342  
G19  20939234.421   110036476.752  
R13  21524976.090                  
> 2019  9 17 14 23 15.9960000  0 13                     
G 3  19322493.988   101540317.371  
G23  19359958.253   101737227.710  
G22  20661853.987                  
G17  21126772.356   111021932.462  
G 9  20511992.442   107791194.361  
R20  18560024.084    99248716.155  
R 5  18711120.678   100021617.408  
R 3  22608870.679                  
G 6  21511066.923   113041420.440  
G31  22682533.946   119197583.9052 
G 1  21312374.425   111997276.032  
G19  20939408.443   110037390.485  
R13  21525041.894                  
> 2019  9 17 14 23 16.9960000  0 13                     
G 3  19322771.734   101541779.550  
G23  19359913.990   101736994.482  
G22  20662291.011                  
G17  21127088.152   111023591.720  
G 9  20511539.906   107788816.597  
R20  18559997.280    99248573.256  
R 5  18710942.381   100020664.714  
R 3  22609580.370                  
G 6  21510563.057   113038770.914  
G31  22682975.270   119199905.0762 
G 1  21313059.651   112000859.882  
G19  20939582.116   110038304.807  
R13  21525107.874                  
> 2019  9 17 14 23 17.9960000  0 13                     
G 3  19323049.672   101543242.041  
G23  19359869.806   101736761.754  
G22  20662727.650                  
G17  21127404.220   111025251.531  
G 9  20511087.465   107786439.264  
R20  18559970.956    99248431.304  
R 5  18710764.214   100019712.513  
R 3  22610289.582                  
G 6  21510059.312   113036121.744  
G31  22683415.618   119202226.8842 
G 1  21313741.126   112004444.056  
G19  20939756.121   110039219.876  
R13  21525175.502                  
> 2019  9 17 14 23 18.9960000  0 13                     
G 3  19323331.677   101544705.069  
G23  19359825.552   101736529.655  
G22  20663163.303                  
G17  21127719.903   111026912.004  
G 9  20510635.129   107784062.440  
R20  18559944.737    99248290.422  
R 5  18710586.396   100018760.889  
R 3  22610997.555                  
G 6  21509555.429   113033472.941  
G31  22683857.204   119204549.353  
G 1  21314421.135   112008028.657  
G19  20939930.589   110040135.784  
R13  21525241.508                  
> 2019  9 17 14 23 19.9960000  0 13                     
G 3  19323610.182   101546168.277  
G23  19359781.072   101736297.941  
G22  20663599.262   108587954.7122 
G17  21128035.874   111028572.986  
G 9  20510182.767   107781685.881  
R20  18559918.641    99248150.370  
R 5  18710408.352   100017809.591  
R 3  22611707.639                  
G 6  21509051.388   113030824.360  
G31  22684298.581   119206872.320  
G 1  21315103.264   112011613.477  
G19  20940105.422   110041052.301  
R13  21525311.369                  
> 2019  9 17 14 23 20.9960000  0 13                     
G 3  19323887.021   101547631.667  
G23  19359737.490   101736066.616  
G22  20664037.664   108590253.7942 
G17  21128352.002   111030234.443  
G 9  20509730.501   107779309.611  
R20  18559892.579    99248011.104  
R 5  18710230.377   100016858.637  
R 3  22612418.125                  
G 6  21508547.670   113028175.881  
G31  22684741.171   119209195.732  
G 1  21315786.239   112015198.487  
G19  20940279.959   110041969.433  
R13  21525380.420                  
> 2019  9 17 14 23 22.9960000  0 13                     
G 3  19324442.889   101550559.779  
G23  19359650.736   101735605.664  
G22  20664912.138                  
G17  21128984.616   111033559.206  
G 9  20508826.345   107774558.460  
R20  18559841.092    99247735.674  
R 5  18709874.733   100014958.318  
R 3  22613837.622                  
G 6  21507540.635   113022880.075  
G31  22685626.220   119213844.516  
G 1  21317151.300   112022369.657  
G19  20940629.950   110043806.046  
R13  21525516.750                  
> 2019  9 17 14 23 23.9960000  0 13                     
G 3  19324721.839   101552024.269  
G23  19359607.311   101735375.938  
G22  20665351.037                  
G17  21129300.997   111035222.502  
G 9  20508374.236   107772183.488  
R20  18559815.780    99247599.335  
R 5  18709697.186   100014008.815  
R 3  22614546.938                  
G 6  21507036.769   113020232.581  
G31  22686068.705   119216169.685  
G 1  21317834.441   112025955.691  
G19  20940804.993   110044725.427  
R13  21525585.059                  
> 2019  9 17 14 23 24.9960000  0 13                     
G 3  19325000.668   101553489.076  
G23  19359564.201   101735146.637  
G22  20665788.968                  
G17  21129617.841   111036886.276  
G 9  20507922.380   107769808.841  
R20  18559790.739    99247463.905  
R 5  18709519.603   100013059.695  
R 3  22615256.106                  
G 6  21506533.208   113017585.327  
G31  22686511.365   119218495.412  
G 1  21318517.355   112029541.964  
G19  20940980.053   110045645.475  
R13  21525655.523                  
> 2019  9 17 14 23 25.9960000  0 13                     
G 3  19325279.365   101554954.237  
G23  19359520.941   101734917.844  
G22  20666226.471                  
G17  21129934.745   111038550.656  
G 9  20507470.375   107767434.603  
R20  18559765.663    99247329.425  
R 5  18709342.239   100012111.054  
R 3  22615965.292                  
G 6  21506029.691   113014938.361  
G31  22686954.164   119220821.806  
G 1  21319199.790   112033128.621  
G19  20941155.489   110046566.251  
R13  21525725.114                  
> 2019  9 17 14 23 26.9960000  0 13                     
G 3  19325558.490   101556419.800  
G23  19359477.839   101734689.661  
G22  20666664.384                  
G17  21130251.929   111040215.656  
G 9  20507018.415   107765060.847  
R20  18559740.788    99247196.007  
R 5  18709164.387   100011162.967  
R 3  22616672.959                  
G 6  21505525.912   113012291.783  
G31  22687397.321   119223148.780  
G 1  21319882.730   112036715.637  
G19  20941331.047   110047487.862  
R13  21525795.831                  
> 2019  9 17 14 23 27.9960000  0 13                     
G 3  19325840.198   101557885.553  
G23  19359435.095   101734461.755  
G22  20667103.126                  
G17  21130569.113   111041881.116  
G 9  20506566.646   107762687.287  
R20  18559715.747    99247063.287  
R 5  18708987.049   100010215.100  
R 3  22617382.118                  
G 6  21505022.394   113009645.245  
G31  22687840.400   119225476.108  
G 1  21320565.679   112040302.762  
G19  20941506.430   110048409.934  
R13  21525866.775                  
> 2019  9 17 14 23 29.9960000  0 13                     
G 3  19326393.753   101560817.962  
G23  19359349.153   101734007.466  
G22  20667980.288                  
G17  21131203.716   111045213.708  
G 9  20505663.065   107757941.369  
R20  18559667.192    99246800.743  
R 5  18708631.955   100008320.749  
R 3  22618801.807                  
G 6  21504015.403   113004353.124  
G31  22688727.124   119230132.563  
G 1  21321930.993   112047477.988  
G19  20941857.956   110050256.355  
R13  21526007.467                  
> 2019  9 17 14 23 30.9960000  0 13                     
G 3  19326672.285   101562284.769  
G23  19359306.155   101733781.087  
G22  20668417.363                  
G17  21131520.988   111046880.894  
G 9  20505211.375   107755569.037  
R20  18559642.936    99246670.922  
R 5  18708454.782   100007374.293  
R 3  22619512.642                  
G 6  21503511.825   113001707.496  
G31  22689170.665   119232461.700  
G 1  21322613.968   112051066.073  
G19  20942033.942   110051180.646  
R13  21526078.795                  
> 2019  9 17 14 23 31.9960000  0 13                     
G 3  19326949.133   101563752.184  
G23  19359263.368   101733555.569  
G22  20668856.105                  
G17  21131838.896   111048548.965  
G 9  20504759.772   107753197.451  
R20  18559619.038    99246542.388  
R 5  18708277.837   100006428.618  
R 3  22620221.470                  
G 6  21503008.587   112999062.540  
G31  22689614.328   119234791.709  
G 1  21323297.249   112054654.789  
G19  20942209.927   110052106.061  
R13  21526149.434                  
> 2019  9 17 14 23 32.9960000  0 13                     
G 3  19327227.979   101565220.188  
G23  19359221.295   101733330.750  
G22  20669290.904                  
G17  21132156.743   111050217.868  
G 9  20504308.300   107750826.459  
R20  18559595.628    99246414.997  
R 5  18708101.014   100005483.643  
R 3  22620930.280                  
G 6  21502505.689   112996418.063  
G31  22690057.773   119237122.564  
G 1  21323980.556   112058244.114  
G19  20942386.375   110053032.358  
R13  21526220.002                  
> 2019  9 17 14 23 33.9960000  0 13                     
G 3  19327508.840   101566688.373  
G23  19359178.795   101733106.311  
G22  20669728.206                  
G17  21132474.808   111051887.190  
G 9  20503857.177   107748455.734  
R20  18559572.175    99246288.424  
R 5  18707923.895   100004538.991  
R 3  22621640.731                  
G 6  21502002.346   112993773.752  
G31  22690501.724   119239453.821  
G 1  21324664.029   112061833.600  
G19  20942562.771   110053959.296  
R13  21526293.660                  
> 2019  9 17 14 23 34.9960000  0 13                     
G 3  19327788.567   101568156.709  
G23  19359136.417   101732882.185  
G22  20670165.195                  
G17  21132792.960   111053556.912  
G 9  20503405.853   107746085.241  
R20  18559548.504    99246162.612  
R 5  18707747.063   100003594.601  
R 3  22622349.314                  
G 6  21501499.379   112991129.526  
G31  22690945.744   119241785.447  
G 1  21325347.309   112065423.132  
G19  20942739.419   110054886.706  
R13  21526364.865                  
> 2019  9 17 14 23 36.9960000  0 13                     
G 3  19328346.895   101571094.177  
G23  19359051.757   101732435.155  
G22  20671042.618   108627056.3533 
G17  21133428.724   111056897.862  
G 9  20502503.363   107741345.150  
R20  18559502.200    99245913.512  
R 5  18707393.452   100001706.857  
R 3  22623765.522                  
G 6  21500493.059   112985841.691  
G31  22691834.057   119246450.234  
G 1  21326713.906   112072603.014  
G19  20943092.786   110056743.504  
R13  21526508.114                  
> 2019  9 17 14 23 37.9960000  0 13                     
G 3  19328626.099   101572563.258  
G23  19359009.537   101732212.279  
G22  20671478.925   108629359.6622 
G17  21133745.445   111058569.048  
G 9  20502052.100   107738975.555  
R20  18559479.113    99245790.222  
R 5  18707216.864   100000763.522  
R 3  22624473.634                  
G 6  21499989.900   112983198.067  
G31  22692278.819   119248783.328  
G 1  21327397.247   112076193.242  
G19  20943269.749   110057672.867  
R13  21526578.500                  
> 2019  9 17 14 23 38.9960000  0 13                     
G 3  19328905.817   101574032.735  
G23  19358967.717   101731989.956  
G22  20671918.191   108631663.1672 
G17  21134069.889   111060240.884  
G 9  20501601.187   107736606.454  
R20  18559456.663    99245667.927  
R 5  18707040.503    99999820.751  
R 3  22625183.631                  
G 6  21499487.142   112980554.855  
G31  22692723.241   119251117.119  
G 1  21328080.633   112079783.872  
G19  20943446.432   110058602.998  
R13  21526650.560                  
> 2019  9 17 14 23 40.9960000  0 13                     
G 3  19329463.369   101576972.507  
G23  19358883.677   101731546.564  
G22  20672795.213   108636270.7322 
G17  21134704.335   111063586.065  
G 9  20500699.281   107731869.187  
R20  18559411.624    99245425.957  
R 5  18706688.227    99997936.309  
R 3  22626601.679                  
G 6  21498481.442   112975268.936  
G31  22693612.434   119255786.073  
G 1  21329447.186   112086965.863  
G19  20943800.942   110060465.203  
R13  21526796.514                  
> 2019  9 17 14 23 41.9960000  0 13                     
G 3  19329743.628   101578442.903  
G23  19358842.049   101731325.633  
G22  20673234.566   108638574.9192 
G17  21135022.077   111065259.548  
G 9  20500248.664   107729501.160  
R20  18559389.245    99245306.457  
R 5  18706512.242    99996994.776  
R 3  22627311.449                  
G 6  21497978.579   112972626.445  
G31  22694057.398   119258121.411  
G 1  21330129.384   112090557.300  
G19  20943978.001   110061397.450  
R13  21526870.581                  
> 2019  9 17 14 23 44.9960000  0 13                     
G 3  19330585.078   101582856.493  
G23  19358717.176   101730666.159  
G22  20674550.556   108645489.226  
G17  21135975.077   111070283.755  
G 9  20498896.647   107722399.783  
R20  18559323.606    99244953.919  
R 5  18705984.390    99994173.215  
R 3  22629440.010                  
G 6  21496470.697   112964700.977  
G31  22695388.666   119265131.292  
G 1  21332182.507   112101333.887  
G19  20944511.070   110064198.688  
R13  21527094.023                  
> 2019  9 17 14 23 45.9960000  0 13                     
G 3  19330865.930   101584328.302  
G23  19358675.862   101730447.300  
G22  20674990.887   108647794.452  
G17  21136294.521   111071959.599  
G 9  20498446.353   107720033.406  
R20  18559301.915    99244838.231  
R 5  18705808.431    99993233.531  
R 3  22630152.249                  
G 6  21495968.026   112962059.698  
G31  22695840.740   119267469.035  
G 1  21332863.284   112104926.620  
G19  20944688.661   110065133.828  
R13  21527168.465                  
